N_Oficial,Nombre_est,latitude,longitude,geometry,N_DinaguaW,N_UTEWSH,N_UTEWSP,Institucio,Tipo_estac,Parametros,Resolucion,wflow_basi,wflow_outp,WHOS_siteC
18,Dolores,-33.51934,-58.22676,POINT (-58.22676175837093 -33.51922710673209),,,,,,,,,,
2.0,Mercedes (Puerto),-33.24605,-58.03812,POINT (-58.03802143288382 -33.24599380928041),,,,,,,,,,
5.1,Paso de los Toros,-32.82041,-56.51117,POINT (-56.51117200182711 -32.82050889892052),,,,,,,,,,
31.0,Paysandú,-32.31455,-58.10396,POINT (-58.10397061012041 -32.31450071475236),,,,,,,,,,
14,Picada de Corbo,-33.83,-54.7689,POINT (-54.7689 -33.83),,,,,,,,,,
15,Paso Averías,-33.6133,-54.3294,POINT (-54.3294 -33.6133),,,,,,,,,,
44,Fray Marcos,-34.2161,-55.7411,POINT (-55.7411 -34.2161),,,,,,,,,,
97,Paso Dragón,-32.7636,-53.7189,POINT (-53.7189 -32.7636),,,,,,,,,,
133,Santa Lucia (Ruta 11),-34.4497,-56.4011,POINT (-56.4011 -34.4497),,,,,,,,,,
52,Paso del Borracho,-31.87573,-55.47099,POINT (-55.47099 -31.87573),,,,,,,,,,
174,Maldonado Pte. R-9,-34.7476,-54.95316,POINT (-54.95316 -34.7476),,,,,,,,,,
26676,Concordia,-31.38,-58.02,POINT (-58.02 -31.38),,,,,,,,,,
28.0,Bella Unión,-30.260656,-57.610707,POINT (-57.61071053947604 -30.26065947449449),,,,,,,,,,
176.1,Picada Benítez,-34.27134,-57.27154,POINT (-57.27158949989072 -34.27133732702026),,,,,,,,,,
INUMET-1,18 DE JULIO,-33.72,-53.55,POINT (-53.55 -33.72),INUMET-1,,,INUMET,Convencional,P,Diaria,,,
INUMET-2,19 DE ABRIL,-34.3623,-54.0698,POINT (-54.0698 -34.3623),INUMET-2,,,INUMET,Convencional,P,Diaria,,,
INUMET-3,25 DE AGOSTO,-34.412,-56.398,POINT (-56.398 -34.412),INUMET-3,,,INUMET,Convencional,P,Diaria,,,
INUMET-6,AGRACIADA,-33.808,-58.265,POINT (-58.265 -33.808),INUMET-6,,,INUMET,Convencional,P,Diaria,,,
INUMET-7,AIGUA,-34.202,-54.767,POINT (-54.767 -34.202),INUMET-7,,,INUMET,Convencional,P,Diaria,,,
INUMET-8,ALGORTA,-32.4207,-57.3922,POINT (-57.3922 -32.4207),INUMET-8,,,INUMET,Convencional,P,Diaria,,,
INUMET-10,ANDRESITO,-33.168,-57.129,POINT (-57.129 -33.168),INUMET-10,,,INUMET,Convencional,P,Diaria,,,
INUMET-12,ARBOLITO,-32.612,-54.214,POINT (-54.214 -32.612),INUMET-12,,,INUMET,Convencional,P,Diaria,,,
INUMET-16,ARTIGAS,-30.398215,-56.511778,POINT (-56.511778 -30.398215),INUMET-16,,,INUMET,Convencional,P,Diaria,,,
INUMET-18,BAIGORRIA,-32.88,-56.8,POINT (-56.8 -32.88),INUMET-18,,,INUMET,Convencional,P,Diaria,,,
INUMET-452,Balneario Solís,-34.79,-55.37,POINT (-55.37 -34.79),INUMET-452,,,INUMET,Convencional,P,Diaria,,,
INUMET-21,BAÑADO MEDINA,-32.402,-54.35,POINT (-54.35 -32.402),INUMET-21,,,INUMET,Convencional,P,Diaria,,,
INUMET-23,BARRIGA NEGRA,-33.96,-55.06,POINT (-55.06 -33.96),INUMET-23,,,INUMET,Convencional,P,Diaria,,,
INUMET-24,BELEN,-30.789,-57.778,POINT (-57.778 -30.789),INUMET-24,,,INUMET,Convencional,P,Diaria,,,
INUMET-26,BERNABE RIVERA,-30.298,-56.969,POINT (-56.969 -30.298),INUMET-26,,,INUMET,Convencional,P,Diaria,,,
INUMET-27,BLANQUILLOS,-32.886,-55.62,POINT (-55.62 -32.886),INUMET-27,,,INUMET,Convencional,P,Diaria,,,
INUMET-29,CAÑADA GRANDE,-32.519,-57.161,POINT (-57.161 -32.519),INUMET-29,,,INUMET,Convencional,P,Diaria,,,
INUMET-32,CAÑAS_CL,-32.36,-53.88,POINT (-53.88 -32.36),INUMET-32,,,INUMET,Convencional,P,Diaria,,,
INUMET-37,CARDONA,-33.8722,-57.3702,POINT (-57.3702 -33.8722),INUMET-37,,,INUMET,Convencional,P,Diaria,,,
INUMET-39,CARRASCO,-34.83292273,-56.01287634,POINT (-56.01287634 -34.83292273),INUMET-39,,,INUMET,Convencional,P,Diaria,,,
INUMET-41,CASUPA_FR,-34.102,-55.652,POINT (-55.652 -34.102),INUMET-41,,,INUMET,Convencional,P,Diaria,,,
INUMET-42,CASUPA_LV,-34.14,-55.482,POINT (-55.482 -34.14),INUMET-42,,,INUMET,Convencional,P,Diaria,,,
INUMET-43,CATALAN CHICO,-30.88,-56.37,POINT (-56.37 -30.88),INUMET-43,,,INUMET,Convencional,P,Diaria,,,
INUMET-44,CATALAN GRANDE,-30.78,-56.251,POINT (-56.251 -30.78),INUMET-44,,,INUMET,Convencional,P,Diaria,,,
INUMET-46,CEBOLLATI,-33.2676,-53.7956,POINT (-53.7956 -33.2676),INUMET-46,,,INUMET,Convencional,P,Diaria,,,
INUMET-49,CERRILLOS,-34.6085,-56.363,POINT (-56.363 -34.6085),INUMET-49,,,INUMET,Convencional,P,Diaria,,,
INUMET-50,CERRO AMARILLO,-30.62,-56.66,POINT (-56.66 -30.62),INUMET-50,,,INUMET,Convencional,P,Diaria,,,
INUMET-51,CERRO CHATO,-33.09964,-55.14253,POINT (-55.14253 -33.09964),INUMET-51,,,INUMET,Convencional,P,Diaria,,,
INUMET-53,CERRO DE LAS CUENTAS,-32.619,-54.593,POINT (-54.593 -32.619),INUMET-53,,,INUMET,Convencional,P,Diaria,,,
INUMET-55,CHACRA POLICIAL,-34.47,-56.25,POINT (-56.25 -34.47),INUMET-55,,,INUMET,Convencional,P,Diaria,,,
INUMET-56,CHAMANGA,-33.7122,-56.677,POINT (-56.677 -33.7122),INUMET-56,,,INUMET,Convencional,P,Diaria,,,
INUMET-57,CHAMIZO_FR,-34.24,-55.92,POINT (-55.92 -34.24),INUMET-57,,,INUMET,Convencional,P,Diaria,,,
INUMET-58,CHAMIZO_SJ,-34.139,-56.69,POINT (-56.69 -34.139),INUMET-58,,,INUMET,Convencional,P,Diaria,,,
INUMET-61,CHILENO,-33.9,-58.1,POINT (-58.1 -33.9),INUMET-61,,,INUMET,Convencional,P,Diaria,,,
INUMET-66,COLONIA,-34.45187417,-57.76777028,POINT (-57.76777028 -34.45187417),INUMET-66,,,INUMET,Convencional,P,Diaria,,,
INUMET-69,COLONIA ITAPEBI,-31.34,-57.4,POINT (-57.4 -31.34),INUMET-69,,,INUMET,Convencional,P,Diaria,,,
INUMET-71,COLONIA MIGUELETE,-34.006,-57.645,POINT (-57.645 -34.006),INUMET-71,,,INUMET,Convencional,P,Diaria,,,
INUMET-72,COLONIA PALMA,-30.58,-57.68,POINT (-57.68 -30.58),INUMET-72,,,INUMET,Convencional,P,Diaria,,,
INUMET-74,COLONIA RIVERA,-30.43,-56.54,POINT (-56.54 -30.43),INUMET-74,,,INUMET,Convencional,P,Diaria,,,
INUMET-75,COLONIA VALDENSE,-34.334,-57.267,POINT (-57.267 -34.334),INUMET-75,,,INUMET,Convencional,P,Diaria,,,
INUMET-76,CONCHILLAS,-34.164,-58.032,POINT (-58.032 -34.164),INUMET-76,,,INUMET,Convencional,P,Diaria,,,
INUMET-78,CONSTITUCION,-31.06,-57.85,POINT (-57.85 -31.06),INUMET-78,,,INUMET,Convencional,P,Diaria,,,
INUMET-79,CORONILLA,-34.35,-54.79,POINT (-54.79 -34.35),INUMET-79,,,INUMET,Convencional,P,Diaria,,,
INUMET-83,CUARO,-30.613,-56.905,POINT (-56.905 -30.613),INUMET-83,,,INUMET,Convencional,P,Diaria,,,
INUMET-457,Cuchilla Alta,-34.79,-55.49,POINT (-55.49 -34.79),INUMET-457,,,INUMET,Convencional,P,Diaria,,,
INUMET-84,CUCHILLA CARAGUATA (N),-32.131,-54.899,POINT (-54.899 -32.131),INUMET-84,,,INUMET,Convencional,P,Diaria,,,
INUMET-90,CUFRE,-34.198,-57.107,POINT (-57.107 -34.198),INUMET-90,,,INUMET,Convencional,P,Diaria,,,
INUMET-91,CURTINAS,-32.149,-56.117,POINT (-56.117 -32.149),INUMET-91,,,INUMET,Convencional,P,Diaria,,,
INUMET-92,DIEGO LAMAS,-30.75,-57.05,POINT (-57.05 -30.75),INUMET-92,,,INUMET,Convencional,P,Diaria,,,
INUMET-94,DOLORES,-33.5299,-58.2173,POINT (-58.2173 -33.5299),INUMET-94,,,INUMET,Convencional,P,Diaria,,,
INUMET-95,DR.SOCA,-34.68374,-55.70273,POINT (-55.70273 -34.68374),INUMET-95,,,INUMET,Convencional,P,Diaria,,,
INUMET-96,DURAZNO,-33.35107518,-56.50234527,POINT (-56.50234527 -33.35107518),INUMET-96,,,INUMET,Convencional,P,Diaria,,,
INUMET-97,ECILDA PAULLIER,-34.35777,-57.0863,POINT (-57.0863 -34.35777),INUMET-97,,,INUMET,Convencional,P,Diaria,,,
INUMET-98,EGAÑA,-33.6017,-57.6316,POINT (-57.6316 -33.6017),INUMET-98,,,INUMET,Convencional,P,Diaria,,,
INUMET-102,EL CERRO,-33.98,-58.23,POINT (-58.23 -33.98),INUMET-102,,,INUMET,Convencional,P,Diaria,,,
INUMET-103,EL MOLINO,-31.71,-56.0,POINT (-56 -31.71),INUMET-103,,,INUMET,Convencional,P,Diaria,,,
INUMET-104,EL PALMAR (P.LATORRE,-33.067,-57.461,POINT (-57.461 -33.067),INUMET-104,,,INUMET,Convencional,P,Diaria,,,
INUMET-106,EL TOPADOR,-30.298,-56.822,POINT (-56.822 -30.298),INUMET-106,,,INUMET,Convencional,P,Diaria,,,
INUMET-108,ESTACION ATAQUES,-31.09,-55.69,POINT (-55.69 -31.09),INUMET-108,,,INUMET,Convencional,P,Diaria,,,
INUMET-109,FLORENCIO SANCHEZ,-33.8761,-57.3718,POINT (-57.3718 -33.8761),INUMET-109,,,INUMET,Convencional,P,Diaria,,,
INUMET-110,FLORIDA,-34.0884725,-56.1869475,POINT (-56.1869475 -34.0884725),INUMET-110,,,INUMET,Convencional,P,Diaria,,,
INUMET-112,FRAY BENTOS,-33.127,-58.296,POINT (-58.296 -33.127),INUMET-112,,,INUMET,Convencional,P,Diaria,,,
INUMET-113,FRAY MARCOS,-34.195,-55.733,POINT (-55.733 -34.195),INUMET-113,,,INUMET,Convencional,P,Diaria,,,
INUMET-114,GARZON,-34.591,-54.546,POINT (-54.546 -34.591),INUMET-114,,,INUMET,Convencional,P,Diaria,,,
INUMET-115,GOÑI,-33.520164,-56.4113466,POINT (-56.4113466 -33.520164),INUMET-115,,,INUMET,Convencional,P,Diaria,,,
INUMET-214,PUEBLO I. NOBLIA,-31.957,-54.124,POINT (-54.124 -31.957),INUMET-214,,,INUMET,Convencional,P,Diaria,,,
INUMET-120,ISLA PATRULLA,-32.996,-54.563,POINT (-54.563 -32.996),INUMET-120,,,INUMET,Convencional,P,Diaria,,,
INUMET-81,CORTINAS,-33.9594,-57.0847,POINT (-57.0847 -33.9594),INUMET-81,,,INUMET,Convencional,P,Diaria,,,
INUMET-122,J.B.YORDOÑEZ,-33.47,-55.14,POINT (-55.14 -33.47),INUMET-122,,,INUMET,Convencional,P,Diaria,,,
INUMET-123,JAVIER DE VIANA,-30.431,-56.781,POINT (-56.781 -30.431),INUMET-123,,,INUMET,Convencional,P,Diaria,,,
INUMET-125,JOSE P.VARELA,-33.4562,-54.5356,POINT (-54.5356 -33.4562),INUMET-125,,,INUMET,Convencional,P,Diaria,,,
INUMET-127,JUAN LACAZE,-34.4355,-57.4388,POINT (-57.4388 -34.4355),INUMET-127,,,INUMET,Convencional,P,Diaria,,,
INUMET-128,JUAN SOLER,-34.32158,-56.80089,POINT (-56.80089 -34.32158),INUMET-128,,,INUMET,Convencional,P,Diaria,,,
INUMET-129,LA AVIACIÓN,-33.48,-56.89,POINT (-56.89 -33.48),INUMET-129,,,INUMET,Convencional,P,Diaria,,,
INUMET-133,LA HILERA,-32.08,-55.66,POINT (-55.66 -32.08),INUMET-133,,,INUMET,Convencional,P,Diaria,,,
INUMET-342,La Paloma_Ro,-34.6577,-54.1596,POINT (-54.1596 -34.6577),INUMET-342,,,INUMET,Convencional,P,Diaria,,,
INUMET-135,LA PEDRERA,-33.53,-56.88,POINT (-56.88 -33.53),INUMET-135,,,INUMET,Convencional,P,Diaria,,,
INUMET-138,LAGUNASAUCE,-34.8597491,-55.09657011,POINT (-55.09657011 -34.8597491),INUMET-138,,,INUMET,Convencional,P,Diaria,,,
INUMET-147,LOS TAPES (FELICIANO),-33.18583,-56.80894,POINT (-56.80894 -33.18583),INUMET-147,,,INUMET,Convencional,P,Diaria,,,
INUMET-153,MARIA ALBINA,-33.3896,-54.6746,POINT (-54.6746 -33.3896),INUMET-153,,,INUMET,Convencional,P,Diaria,,,
INUMET-154,MARINCHO,-33.3845,-57.16397,POINT (-57.16397 -33.3845),INUMET-154,,,INUMET,Convencional,P,Diaria,,,
INUMET-155,MARISCALA,-34.0441,-54.7806,POINT (-54.7806 -34.0441),INUMET-155,,,INUMET,Convencional,P,Diaria,,,
INUMET-156,MARMARAJA,-34.26,-54.955,POINT (-54.955 -34.26),INUMET-156,,,INUMET,Convencional,P,Diaria,,,
INUMET-159,MELILLA,-34.78911444,-56.26313361,POINT (-56.26313361 -34.78911444),INUMET-159,,,INUMET,Convencional,P,Diaria,,,
INUMET-160,MELO,-32.35166667,-54.19333333,POINT (-54.19333333 -32.35166667),INUMET-160,,,INUMET,Convencional,P,Diaria,,,
INUMET-161,MENDOZA,-34.28,-56.21,POINT (-56.21 -34.28),INUMET-161,,,INUMET,Convencional,P,Diaria,,,
INUMET-162,MERCEDES,-33.25051367,-58.06907631,POINT (-58.06907631 -33.25051367),INUMET-162,,,INUMET,Convencional,P,Diaria,,,
INUMET-165,MINAS DE CORRALES,-31.573,-55.474,POINT (-55.474 -31.573),INUMET-165,,,INUMET,Convencional,P,Diaria,,,
INUMET-167,MOIRONES,-31.602,-54.977,POINT (-54.977 -31.602),INUMET-167,,,INUMET,Convencional,P,Diaria,,,
INUMET-169,NICO PEREZ,-33.48075,-55.15342,POINT (-55.15342 -33.48075),INUMET-169,,,INUMET,Convencional,P,Diaria,,,
INUMET-170,NUEVA HELVECIA,-34.284,-57.234,POINT (-57.234 -34.284),INUMET-170,,,INUMET,Convencional,P,Diaria,,,
INUMET-171,NUEVA PALMIRA,-33.873,-58.406,POINT (-58.406 -33.873),INUMET-171,,,INUMET,Convencional,P,Diaria,,,
INUMET-172,NUEVO BERLIN,-32.982,-58.059,POINT (-58.059 -32.982),INUMET-172,,,INUMET,Convencional,P,Diaria,,,
INUMET-179,PALMITAS,-33.5079,-57.7995,POINT (-57.7995 -33.5079),INUMET-179,,,INUMET,Convencional,P,Diaria,,,
INUMET-180,PALOMAS,-31.08,-57.61,POINT (-57.61 -31.08),INUMET-180,,,INUMET,Convencional,P,Diaria,,,
INUMET-186,PASO CAMPAMENTO,-30.78,-56.78,POINT (-56.78 -30.78),INUMET-186,,,INUMET,Convencional,P,Diaria,,,
INUMET-187,PASO DE LA CRUZ_AR,-30.29,-57.31,POINT (-57.31 -30.29),INUMET-187,,,INUMET,Convencional,P,Diaria,,,
INUMET-188,PASO DE LA CRUZ_RN,-32.559,-57.39,POINT (-57.39 -32.559),INUMET-188,,,INUMET,Convencional,P,Diaria,,,
INUMET-194,PASO FARIAS,-30.48,-57.13,POINT (-57.13 -30.48),INUMET-194,,,INUMET,Convencional,P,Diaria,,,
INUMET-201,PAYSANDU,-32.379524,-58.027395,POINT (-58.027395 -32.379524),INUMET-201,,,INUMET,Convencional,P,Diaria,,,
INUMET-73,COLONIA PINTADO,-30.46,-56.42,POINT (-56.42 -30.46),INUMET-73,,,INUMET,Convencional,P,Diaria,,,
INUMET-206,PIRARAJA,-33.7424,-54.752,POINT (-54.752 -33.7424),INUMET-206,,,INUMET,Convencional,P,Diaria,,,
INUMET-207,PLACIDO ROSAS,-32.7548,-53.7172,POINT (-53.7172 -32.7548),INUMET-207,,,INUMET,Convencional,P,Diaria,,,
INUMET-209,POLANCO DEL YI,-33.48,-56.156,POINT (-56.156 -33.48),INUMET-209,,,INUMET,Convencional,P,Diaria,,,
INUMET-211,PRADO,-34.86067611,-56.20786139,POINT (-56.20786139 -34.86067611),INUMET-211,,,INUMET,Convencional,P,Diaria,,,
INUMET-212,PUEBLO ANSINA,-31.87,-55.46,POINT (-55.46 -31.87),INUMET-212,,,INUMET,Convencional,P,Diaria,,,
INUMET-279,VALENTIN (P.BAZZINI),-31.28,-57.13,POINT (-57.13 -31.28),INUMET-279,,,INUMET,Convencional,P,Diaria,,,
INUMET-213,PUEBLO CENTENARIO,-32.826,-56.498,POINT (-56.498 -32.826),INUMET-213,,,INUMET,Convencional,P,Diaria,,,
INUMET-140,LAS FLORES (GRECCO),-32.819,-57.041,POINT (-57.041 -32.819),INUMET-140,,,INUMET,Convencional,P,Diaria,,,
INUMET-215,PUEBLO JOSE E. RODO,-33.6964,-57.5323,POINT (-57.5323 -33.6964),INUMET-215,,,INUMET,Convencional,P,Diaria,,,
INUMET-219,PUNTADELESTE,-34.96893998,-54.95122309,POINT (-54.95122309 -34.96893998),INUMET-219,,,INUMET,Convencional,P,Diaria,,,
INUMET-224,QUINTANA,-31.35,-56.393,POINT (-56.393 -31.35),INUMET-224,,,INUMET,Convencional,P,Diaria,,,
INUMET-227,REBOLEDO,-33.999,-55.65,POINT (-55.65 -33.999),INUMET-227,,,INUMET,Convencional,P,Diaria,,,
INUMET-228,RIACHUELO,-34.4271,-57.7184,POINT (-57.7184 -34.4271),INUMET-228,,,INUMET,Convencional,P,Diaria,,,
INUMET-230,RINCON DE UTURBEY,-33.277,-54.84,POINT (-54.84 -33.277),INUMET-230,,,INUMET,Convencional,P,Diaria,,,
INUMET-232,RINCONDEPEREIRA,-32.39,-55.29,POINT (-55.29 -32.39),INUMET-232,,,INUMET,Convencional,P,Diaria,,,
INUMET-231,RINCON DEL PINO (R.P,-34.52079,-56.80048,POINT (-56.80048 -34.52079),INUMET-231,,,INUMET,Convencional,P,Diaria,,,
INUMET-235,RIVERA,-30.89647333,-55.54266278,POINT (-55.54266278 -30.89647333),INUMET-235,,,INUMET,Convencional,P,Diaria,,,
INUMET-236,ROCHA,-34.49356987,-54.31259471,POINT (-54.31259471 -34.49356987),INUMET-236,,,INUMET,Convencional,P,Diaria,,,
INUMET-238,ROSSELL Y RIUS,-33.18461,-55.69711,POINT (-55.69711 -33.18461),INUMET-238,,,INUMET,Convencional,P,Diaria,,,
INUMET-239,SALTO,-31.43839722,-57.98300333,POINT (-57.98300333 -31.43839722),INUMET-239,,,INUMET,Convencional,P,Diaria,,,
INUMET-240,SAN ANTONIO,-34.45,-56.079,POINT (-56.079 -34.45),INUMET-240,,,INUMET,Convencional,P,Diaria,,,
INUMET-612,San Bautista,-34.44,-55.95,POINT (-55.95 -34.44),INUMET-612,,,INUMET,Convencional,P,Diaria,,,
INUMET-243,SAN GABRIEL,-34.037,-55.883,POINT (-55.883 -34.037),INUMET-243,,,INUMET,Convencional,P,Diaria,,,
INUMET-244,SAN GREGORIO,-32.614,-55.833,POINT (-55.833 -32.614),INUMET-244,,,INUMET,Convencional,P,Diaria,,,
INUMET-246,SAN JAVIER,-32.667,-58.136,POINT (-58.136 -32.667),INUMET-246,,,INUMET,Convencional,P,Diaria,,,
INUMET-247,SAN JORGE,-32.8432,-55.8968,POINT (-55.8968 -32.8432),INUMET-247,,,INUMET,Convencional,P,Diaria,,,
INUMET-252,SANJOSE,-34.35194583,-56.74962639,POINT (-56.74962639 -34.35194583),INUMET-252,,,INUMET,Convencional,P,Diaria,,,
INUMET-248,SAN LUIS,-33.6055,-53.719,POINT (-53.719 -33.6055),INUMET-248,,,INUMET,Convencional,P,Diaria,,,
INUMET-251,SANCHEZ GRANDE,-32.83,-57.73,POINT (-57.73 -32.83),INUMET-251,,,INUMET,Convencional,P,Diaria,,,
INUMET-250,SAN MARTIN (S.CATALI,-33.791,-57.492,POINT (-57.492 -33.791),INUMET-250,,,INUMET,Convencional,P,Diaria,,,
INUMET-460,Santa Lucía,-34.45,-56.38,POINT (-56.38 -34.45),INUMET-460,,,INUMET,Convencional,P,Diaria,,,
INUMET-253,SANTAROSA,-34.4994,-56.0393,POINT (-56.0393 -34.4994),INUMET-253,,,INUMET,Convencional,P,Diaria,,,
INUMET-257,SARANDI DEL YI,-33.33322,-55.62133,POINT (-55.62133 -33.33322),INUMET-257,,,INUMET,Convencional,P,Diaria,,,
INUMET-261,STA.BERNARDINA,-33.359,-56.514,POINT (-56.514 -33.359),INUMET-261,,,INUMET,Convencional,P,Diaria,,,
INUMET-262,STA.LUCIA (LA CALERA,-34.22,-55.17,POINT (-55.17 -34.22),INUMET-262,,,INUMET,Convencional,P,Diaria,,,
INUMET-265,TALA,-34.344,-55.761,POINT (-55.761 -34.344),INUMET-265,,,INUMET,Convencional,P,Diaria,,,
INUMET-461,Toledo,-34.74,-56.08,POINT (-56.08 -34.74),INUMET-461,,,INUMET,Convencional,P,Diaria,,,
INUMET-272,TREINTAYTRES,-33.22286037,-54.38734092,POINT (-54.38734092 -33.22286037),INUMET-272,,,INUMET,Convencional,P,Diaria,,,
INUMET-274,TRES BOLICHES,-32.27,-54.18,POINT (-54.18 -32.27),INUMET-274,,,INUMET,Convencional,P,Diaria,,,
INUMET-276,TRINIDAD,-33.53656606,-56.91599611,POINT (-56.91599611 -33.53656606),INUMET-276,,,INUMET,Convencional,P,Diaria,,,
INUMET-278,V.ROSARIO,-34.31,-55.47,POINT (-55.47 -34.31),INUMET-278,,,INUMET,Convencional,P,Diaria,,,
INUMET-281,VELAZQUEZ,-34.038,-54.282,POINT (-54.282 -34.038),INUMET-281,,,INUMET,Convencional,P,Diaria,,,
INUMET-284,VICHADERO,-31.7793,-54.6915,POINT (-54.6915 -31.7793),INUMET-284,,,INUMET,Convencional,P,Diaria,,,
INUMET-285,VILLA 25 DE MAYO,-34.198,-56.341,POINT (-56.341 -34.198),INUMET-285,,,INUMET,Convencional,P,Diaria,,,
INUMET-286,VILLA CARDAL,-34.291,-56.396,POINT (-56.396 -34.291),INUMET-286,,,INUMET,Convencional,P,Diaria,,,
INUMET-291,VILLA SOLIS DE MATAO,-34.598,-55.466,POINT (-55.466 -34.598),INUMET-291,,,INUMET,Convencional,P,Diaria,,,
INUMET-292,VILLA SORIANO,-33.39,-58.32,POINT (-58.32 -33.39),INUMET-292,,,INUMET,Convencional,P,Diaria,,,
INUMET-293,YOUNG,-32.68634837,-57.64992019,POINT (-57.64992019 -32.68634837),INUMET-293,,,INUMET,Convencional,P,Diaria,,,
INUMET-295,ZAPICAN,-33.527,-54.94,POINT (-54.94 -33.527),INUMET-295,,,INUMET,Convencional,P,Diaria,,,
INUMET-62,CHUY,-33.693,-53.447,POINT (-53.447 -33.693),INUMET-62,,,INUMET,Convencional,P,Diaria,,,
INUMET-86,CUCHILLA DE NAVARRO,-32.55,-56.82,POINT (-56.82 -32.55),INUMET-86,,,INUMET,Convencional,P,Diaria,,,
INUMET-88,CUCHILLA DEL CARMEN,-32.73,-55.03,POINT (-55.03 -32.73),INUMET-88,,,INUMET,Convencional,P,Diaria,,,
INUMET-111,FRAILE MUERTO,-32.5187,-54.5394,POINT (-54.5394 -32.5187),INUMET-111,,,INUMET,Convencional,P,Diaria,,,
INUMET-168,MOLLES (CARLOS REYLE,-33.05672,-56.49894,POINT (-56.49894 -33.05672),INUMET-168,,,INUMET,Convencional,P,Diaria,,,
INUMET-175,P. DE MACIEL,-33.62281,-56.36264,POINT (-56.36264 -33.62281),INUMET-175,,,INUMET,Convencional,P,Diaria,,,
INUMET-259,SEQUEIRA,-31.0,-56.876,POINT (-56.876 -31),INUMET-259,,,INUMET,Convencional,P,Diaria,,,
INUMET-270,TOMAS GOMENSORO,-30.431,-57.44,POINT (-57.44 -30.431),INUMET-270,,,INUMET,Convencional,P,Diaria,,,
INUMET-271,TRANQUERAS,-31.19,-55.776,POINT (-55.776 -31.19),INUMET-271,,,INUMET,Convencional,P,Diaria,,,
INUMET-608,Aeropuerto Melilla G3,-34.78999,-56.26628,POINT (-56.26628 -34.78999),INUMET-608,,,INUMET,Automatica,P,5 min,,,
INUMET-1337,Artigas G3,-30.39911,-56.51267,POINT (-56.51267 -30.39911),INUMET-1337,,,INUMET,Automatica,P,5 min,,,
INUMET-1341,Atlántida G3,-34.77972,-55.75277,POINT (-55.75277 -34.77972),INUMET-1341,,,INUMET,Automatica,P,5 min,,,
INUMET-594,Colonia G3,-34.45182,-57.76804,POINT (-57.76804 -34.45182),INUMET-594,,,INUMET,Automatica,P,5 min,,,
INUMET-610,Durazno G3,-33.35052,-56.49724,POINT (-56.49724 -33.35052),INUMET-610,,,INUMET,Automatica,P,5 min,,,
INUMET-953,Laguna del Sauce G3,-34.86045,-55.10714,POINT (-55.10714 -34.86045),INUMET-953,,,INUMET,Automatica,P,5 min,,,
INUMET-1334,Lavalleja G3,-34.33591,-55.0841,POINT (-55.0841 -34.33591),INUMET-1334,,,INUMET,Automatica,P,5 min,,,
INUMET-1336,Melo G3,-32.36675,-54.19257,POINT (-54.19257 -32.36675),INUMET-1336,,,INUMET,Automatica,P,5 min,,,
INUMET-609,Mercedes G3,-33.25068,-58.0692,POINT (-58.0692 -33.25068),INUMET-609,,,INUMET,Automatica,P,5 min,,,
INUMET-1554,Minas de Corrales G4,-31.59204,-55.45411,POINT (-55.45411 -31.59204),INUMET-1554,,,INUMET,Automatica,P,5 min,,,
INUMET-603,Paso de los Toros G3,-32.79667,-56.51467,POINT (-56.51467 -32.79667),INUMET-603,,,INUMET,Automatica,P,5 min,,,
INUMET-1333,Paysandú G3,-32.38105,-58.03125,POINT (-58.03125 -32.38105),INUMET-1333,,,INUMET,Automatica,P,5 min,,,
INUMET-652,Prado G3,-34.86064,-56.20765,POINT (-56.20765 -34.86064),INUMET-652,,,INUMET,Automatica,P,5 min,,,
INUMET-1332,Rivera G3,-30.97031,-55.4735,POINT (-55.4735 -30.97031),INUMET-1332,,,INUMET,Automatica,P,5 min,,,
INUMET-590,Rocha G3,-34.49361,-54.3125,POINT (-54.3125 -34.49361),INUMET-590,,,INUMET,Automatica,P,5 min,,,
INUMET-600,Salto G3,-31.43889,-57.98102,POINT (-57.98102 -31.43889),INUMET-600,,,INUMET,Automatica,P,5 min,,,
INUMET-1335,San Jacinto G3,-34.51446,-55.84642,POINT (-55.84642 -34.51446),INUMET-1335,,,INUMET,Automatica,P,5 min,,,
INUMET-1326,Tacuarembó G3,-31.70585,-55.99149,POINT (-55.99149 -31.70585),INUMET-1326,,,INUMET,Automatica,P,5 min,,,
INUMET-1342,Treinta y Tres G3,-33.19674,-54.34822,POINT (-54.34822 -33.19674),INUMET-1342,,,INUMET,Automatica,P,5 min,,,
INUMET-1440,25 de Mayo (TP),-34.198,-56.342,POINT (-56.342 -34.198),INUMET-1440,,,INUMET,Automatica,P,5 min,,,
INUMET-1399,Achar (TP),-32.404,-56.181,POINT (-56.181 -32.404),INUMET-1399,,,INUMET,Automatica,P,5 min,,,
INUMET-1417,Aeropuerto Carrasco (TP),-34.833,-56.013,POINT (-56.013 -34.833),INUMET-1417,,,INUMET,Automatica,P,5 min,,,
INUMET-1423,Aigua (TP),-34.203,-54.768,POINT (-54.768 -34.203),INUMET-1423,,,INUMET,Automatica,P,5 min,,,
INUMET-1382,Andresito (TP),-33.168,-57.129,POINT (-57.129 -33.168),INUMET-1382,,,INUMET,Automatica,P,5 min,,,
INUMET-1437,Arbolito (TP),-32.612,-54.214,POINT (-54.214 -32.612),INUMET-1437,,,INUMET,Automatica,P,5 min,,,
INUMET-1411,Balneario Solís (TP),-34.796,-55.38,POINT (-55.38 -34.796),INUMET-1411,,,INUMET,Automatica,P,5 min,,,
INUMET-1420,Barriga Negra (TP),-33.966,-55.066,POINT (-55.066 -33.966),INUMET-1420,,,INUMET,Automatica,P,5 min,,,
INUMET-1409,Bocas del Cufre (TP),-34.442,-57.146,POINT (-57.146 -34.442),INUMET-1409,,,INUMET,Automatica,P,5 min,,,
INUMET-1425,Cardona (TP),-33.873,-57.37,POINT (-57.37 -33.873),INUMET-1425,,,INUMET,Automatica,P,5 min,,,
INUMET-1439,Cebollati (TP),-33.268,-53.796,POINT (-53.796 -33.268),INUMET-1439,,,INUMET,Automatica,P,5 min,,,
INUMET-1408,Chacra Policial (TP),-34.47,-56.244,POINT (-56.244 -34.47),INUMET-1408,,,INUMET,Automatica,P,5 min,,,
INUMET-1395,Chamanga (TP),-33.714,-56.669,POINT (-56.669 -33.714),INUMET-1395,,,INUMET,Automatica,P,5 min,,,
INUMET-1415,Chamizo (TP),-34.139,-56.691,POINT (-56.691 -34.139),INUMET-1415,,,INUMET,Automatica,P,5 min,,,
INUMET-1530,Chapicuy (TP),-31.658,-57.89,POINT (-57.89 -31.658),INUMET-1530,,,INUMET,Automatica,P,5 min,,,
INUMET-1569,Clara (TP),-32.224,-55.732,POINT (-55.732 -32.224),INUMET-1569,,,INUMET,Automatica,P,5 min,,,
INUMET-1402,Colonia (TP),-34.452,-57.768,POINT (-57.768 -34.452),INUMET-1402,,,INUMET,Automatica,P,5 min,,,
INUMET-1428,Colonia Manuel Victoria (TP),-33.725,-57.533,POINT (-57.533 -33.725),INUMET-1428,,,INUMET,Automatica,P,5 min,,,
INUMET-1391,Colonia Migulete (TP),-34.005,-57.645,POINT (-57.645 -34.005),INUMET-1391,,,INUMET,Automatica,P,5 min,,,
INUMET-1441,Colonia Rosell y Rius (TP),-33.184,-55.697,POINT (-55.697 -33.184),INUMET-1441,,,INUMET,Automatica,P,5 min,,,
INUMET-1536,Corrales (TP),-31.573,-55.474,POINT (-55.474 -31.573),INUMET-1536,,,INUMET,Automatica,P,5 min,,,
INUMET-1426,Cuchilla Caraguatá Sur (TP),-32.245,-54.993,POINT (-54.993 -32.245),INUMET-1426,,,INUMET,Automatica,P,5 min,,,
INUMET-1433,Cuchilla de Dionisio (TP),-32.872,-54.285,POINT (-54.285 -32.872),INUMET-1433,,,INUMET,Automatica,P,5 min,,,
INUMET-1434,Cuchilla del Carmen (TP),-32.72,-55.033,POINT (-55.033 -32.72),INUMET-1434,,,INUMET,Automatica,P,5 min,,,
INUMET-1427,Cuchilla del Ombú (TP),-31.761,-55.698,POINT (-55.698 -31.761),INUMET-1427,,,INUMET,Automatica,P,5 min,,,
INUMET-1396,Curtina (TP),-32.146,-56.113,POINT (-56.113 -32.146),INUMET-1396,,,INUMET,Automatica,P,5 min,,,
INUMET-1432,Dolores (TP),-33.551,-58.205,POINT (-58.205 -33.551),INUMET-1432,,,INUMET,Automatica,P,5 min,,,
INUMET-1376,El Águila (TP),-33.04,-57.275,POINT (-57.275 -33.04),INUMET-1376,,,INUMET,Automatica,P,5 min,,,
INUMET-1397,El Cerro (TP),-33.99,-58.257,POINT (-58.257 -33.99),INUMET-1397,,,INUMET,Automatica,P,5 min,,,
INUMET-1533,El Eucaliptus (TP),-31.902,-57.263,POINT (-57.263 -31.902),INUMET-1533,,,INUMET,Automatica,P,5 min,,,
INUMET-1380,El Tala (TP),-33.218,-57.421,POINT (-57.421 -33.218),INUMET-1380,,,INUMET,Automatica,P,5 min,,,
INUMET-1424,Florida (TP),-34.088,-56.187,POINT (-56.187 -34.088),INUMET-1424,,,INUMET,Automatica,P,5 min,,,
INUMET-1401,Fraile Muerto (TP),-32.512,-54.524,POINT (-54.524 -32.512),INUMET-1401,,,INUMET,Automatica,P,5 min,,,
INUMET-1413,Garzón (TP),-34.591,-54.547,POINT (-54.547 -34.591),INUMET-1413,,,INUMET,Automatica,P,5 min,,,
INUMET-1532,Guichon (TP),-32.356,-57.2,POINT (-57.2 -32.356),INUMET-1532,,,INUMET,Automatica,P,5 min,,,
INUMET-1566,Illescas (TP),-33.608,-55.327,POINT (-55.327 -33.608),INUMET-1566,,,INUMET,Automatica,P,5 min,,,
INUMET-1435,Isla Patrulla (TP),-32.996,-54.563,POINT (-54.563 -32.996),INUMET-1435,,,INUMET,Automatica,P,5 min,,,
INUMET-1392,Ismael Cortinas (TP),-33.959,-57.087,POINT (-57.087 -33.959),INUMET-1392,,,INUMET,Automatica,P,5 min,,,
INUMET-1414,Kiyú (TP),-34.696,-56.749,POINT (-56.749 -34.696),INUMET-1414,,,INUMET,Automatica,P,5 min,,,
INUMET-1638,La Calera (TP),-34.2246,-55.2958,POINT (-55.2958 -34.2246),INUMET-1638,,,INUMET,Automatica,P,5 min,,,
INUMET-1524,La Colmena (TP),-34.379,-54.502,POINT (-54.502 -34.379),INUMET-1524,,,INUMET,Automatica,P,5 min,,,
INUMET-1390,La Cruz (TP),-33.929,-56.237,POINT (-56.237 -33.929),INUMET-1390,,,INUMET,Automatica,P,5 min,,,
INUMET-1431,La Hilera (TP),-32.078,-55.66,POINT (-55.66 -32.078),INUMET-1431,,,INUMET,Automatica,P,5 min,,,
INUMET-1386,La Paloma (TP),-34.658,-54.16,POINT (-54.16 -34.658),INUMET-1386,,,INUMET,Automatica,P,5 min,,,
INUMET-1443,Laguna Merin (TP),-32.741,-53.264,POINT (-53.264 -32.741),INUMET-1443,,,INUMET,Automatica,P,5 min,,,
INUMET-1568,Lascano (TP),-33.678,-54.208,POINT (-54.208 -33.678),INUMET-1568,,,INUMET,Automatica,P,5 min,,,
INUMET-1406,Marincho (TP),-33.315,-57.069,POINT (-57.069 -33.315),INUMET-1406,,,INUMET,Automatica,P,5 min,,,
INUMET-1421,Mariscala (TP),-34.044,-54.781,POINT (-54.781 -34.044),INUMET-1421,,,INUMET,Automatica,P,5 min,,,
INUMET-1537,Masoller (TP),-31.083,-56.003,POINT (-56.003 -31.083),INUMET-1537,,,INUMET,Automatica,P,5 min,,,
INUMET-1398,Mataojo (TP),-34.637,-55.048,POINT (-55.048 -34.637),INUMET-1398,,,INUMET,Automatica,P,5 min,,,
INUMET-1381,Mendoza Grande (TP),-34.282,-56.215,POINT (-56.215 -34.282),INUMET-1381,,,INUMET,Automatica,P,5 min,,,
INUMET-1565,Migues (TP),-34.433,-55.687,POINT (-55.687 -34.433),INUMET-1565,,,INUMET,Automatica,P,5 min,,,
INUMET-1564,Moirones (TP),-31.604,-54.984,POINT (-54.984 -31.604),INUMET-1564,,,INUMET,Automatica,P,5 min,,,
INUMET-1442,Montecoral (TP),-33.526,-55.727,POINT (-55.727 -33.526),INUMET-1442,,,INUMET,Automatica,P,5 min,,,
INUMET-1403,Nueva Palmira (TP),-33.86,-58.396,POINT (-58.396 -33.86),INUMET-1403,,,INUMET,Automatica,P,5 min,,,
INUMET-1526,Nuevo Berlín (TP),-32.982,-58.059,POINT (-58.059 -32.982),INUMET-1526,,,INUMET,Automatica,P,5 min,,,
INUMET-1394,Palmitas (TP),-33.508,-57.799,POINT (-57.799 -33.508),INUMET-1394,,,INUMET,Automatica,P,5 min,,,
INUMET-1527,Parador La Vibora (TP),-33.169,-58.178,POINT (-58.178 -33.169),INUMET-1527,,,INUMET,Automatica,P,5 min,,,
INUMET-1429,Parque Policial Solymar (TP),-34.824,-55.959,POINT (-55.959 -34.824),INUMET-1429,,,INUMET,Automatica,P,5 min,,,
INUMET-1563,Paso Ataques (TP),-31.095,-55.688,POINT (-55.688 -31.095),INUMET-1563,,,INUMET,Automatica,P,5 min,,,
INUMET-1430,Paso del Cerro (TP),-31.486,-55.833,POINT (-55.833 -31.486),INUMET-1430,,,INUMET,Automatica,P,5 min,,,
INUMET-1545,Paso Severino (TP),-34.268,-56.303,POINT (-56.303 -34.268),INUMET-1545,,,INUMET,Automatica,P,5 min,,,
INUMET-1379,Peralta (TP),-32.494,-56.355,POINT (-56.355 -32.494),INUMET-1379,,,INUMET,Automatica,P,5 min,,,
INUMET-1544,Piedra Sola (TP),-32.082,-56.308,POINT (-56.308 -32.082),INUMET-1544,,,INUMET,Automatica,P,5 min,,,
INUMET-1529,Piedras Coloradas (TP),-32.369,-57.61,POINT (-57.61 -32.369),INUMET-1529,,,INUMET,Automatica,P,5 min,,,
INUMET-1422,Piraraja (TP),-33.744,-54.753,POINT (-54.753 -33.744),INUMET-1422,,,INUMET,Automatica,P,5 min,,,
INUMET-1562,Piriápolis (TP),-34.845,-55.267,POINT (-55.267 -34.845),INUMET-1562,,,INUMET,Automatica,P,5 min,,,
INUMET-1378,Prado (TP),-34.86,-56.207,POINT (-56.207 -34.86),INUMET-1378,,,INUMET,Automatica,P,5 min,,,
INUMET-1372,Pueblo Centenario (TP),-32.834,-56.496,POINT (-56.496 -32.834),INUMET-1372,,,INUMET,Automatica,P,5 min,,,
INUMET-1373,Pueblo Grecco (TP),-32.818,-57.044,POINT (-57.044 -32.818),INUMET-1373,,,INUMET,Automatica,P,5 min,,,
INUMET-1400,Punta del Este (TP),-34.969,-54.951,POINT (-54.951 -34.969),INUMET-1400,,,INUMET,Automatica,P,5 min,,,
INUMET-1412,Puntas del Sauce (TP),-33.83,-57.017,POINT (-57.017 -33.83),INUMET-1412,,,INUMET,Automatica,P,5 min,,,
INUMET-1531,Quebracho (TP),-31.93,-57.89,POINT (-57.89 -31.93),INUMET-1531,,,INUMET,Automatica,P,5 min,,,
INUMET-1410,Rafael Perazza (TP),-34.524,-56.801,POINT (-56.801 -34.524),INUMET-1410,,,INUMET,Automatica,P,5 min,,,
INUMET-1642,Reboledo (TP),-34.0,-55.6506,POINT (-55.6506 -34),INUMET-1642,,,INUMET,Automatica,P,5 min,,,
INUMET-1444,Rincón (TP),-32.832,-53.832,POINT (-53.832 -32.832),INUMET-1444,,,INUMET,Automatica,P,5 min,,,
INUMET-1570,Rincón de Pereira (TP),-32.397,-55.292,POINT (-55.292 -32.397),INUMET-1570,,,INUMET,Automatica,P,5 min,,,
INUMET-1383,San Gabriel (TP),-34.037,-55.886,POINT (-55.886 -34.037),INUMET-1383,,,INUMET,Automatica,P,5 min,,,
INUMET-1525,San Javier (TP),-32.667,-58.136,POINT (-58.136 -32.667),INUMET-1525,,,INUMET,Automatica,P,5 min,,,
INUMET-1404,San Jorge (TP),-32.844,-55.897,POINT (-55.897 -32.844),INUMET-1404,,,INUMET,Automatica,P,5 min,,,
INUMET-1418,San José (TP),-34.352,-56.75,POINT (-56.75 -34.352),INUMET-1418,,,INUMET,Automatica,P,5 min,,,
INUMET-1387,San Luis (TP),-33.606,-53.719,POINT (-53.719 -33.606),INUMET-1387,,,INUMET,Automatica,P,5 min,,,
INUMET-1377,San Ramón (TP),-34.303,-55.961,POINT (-55.961 -34.303),INUMET-1377,,,INUMET,Automatica,P,5 min,,,
INUMET-1528,Santa Clara de Olimar (TP),-32.923,-54.947,POINT (-54.947 -32.923),INUMET-1528,,,INUMET,Automatica,P,5 min,,,
INUMET-1374,Santa Lucía (TP),-34.45,-56.345,POINT (-56.345 -34.45),INUMET-1374,,,INUMET,Automatica,P,5 min,,,
INUMET-1643,Santa Rosa (TP),-34.5451,-56.0614,POINT (-56.0614 -34.5451),INUMET-1643,,,INUMET,Automatica,P,5 min,,,
INUMET-1384,Santa Teresa (TP),-33.999,-53.554,POINT (-53.554 -33.999),INUMET-1384,,,INUMET,Automatica,P,5 min,,,
INUMET-1407,Sarandi del Navarro (TP),-32.543,-56.862,POINT (-56.862 -32.543),INUMET-1407,,,INUMET,Automatica,P,5 min,,,
INUMET-1543,Sarandí Grande (TP),-33.71,-56.334,POINT (-56.334 -33.71),INUMET-1543,,,INUMET,Automatica,P,5 min,,,
INUMET-1416,Sauce (TP),-34.634,-55.959,POINT (-55.959 -34.634),INUMET-1416,,,INUMET,Automatica,P,5 min,,,
INUMET-1523,Tarumanes (TP),-34.423,-54.398,POINT (-54.398 -34.423),INUMET-1523,,,INUMET,Automatica,P,5 min,,,
INUMET-1405,Toledo (TP),-34.743,-56.096,POINT (-56.096 -34.743),INUMET-1405,,,INUMET,Automatica,P,5 min,,,
INUMET-1419,Trinidad (TP),-33.536,-56.916,POINT (-56.916 -33.536),INUMET-1419,,,INUMET,Automatica,P,5 min,,,
INUMET-1389,Valizas (TP),-34.4,-53.869,POINT (-53.869 -34.4),INUMET-1389,,,INUMET,Automatica,P,5 min,,,
INUMET-1393,Valle Edén (TP),-31.824,-56.175,POINT (-56.175 -31.824),INUMET-1393,,,INUMET,Automatica,P,5 min,,,
INUMET-1385,Velázquez (TP),-34.035,-54.28,POINT (-54.28 -34.035),INUMET-1385,,,INUMET,Automatica,P,5 min,,,
INUMET-1538,Vichadero (TP),-31.779,-54.691,POINT (-54.691 -31.779),INUMET-1538,,,INUMET,Automatica,P,5 min,,,
INUMET-1438,Zapican (TP),-33.527,-54.941,POINT (-54.941 -33.527),INUMET-1438,,,INUMET,Automatica,P,5 min,,,
19.0,Carmelo (Atracadero),-34.0092,-58.2903,POINT (-58.2903 -34.0092),0000000190,,,DINAGUA,Telemetrica,H,30 min,,,
13.0,La Charqueada,-33.2033,-53.7964,POINT (-53.7964 -33.2033),0000000130,,,DINAGUA,Telemetrica,HT,30 min,,,
14.0,Picada de Corbo,-33.83,-54.7689,POINT (-54.7689 -33.83),0000000140,,,DINAGUA,Telemetrica,HQT,30 min,,,
15.0,Paso Averías,-33.6133,-54.3294,POINT (-54.3294 -33.6133),0000000150,,,DINAGUA,Telemetrica,HQ,Horaria,,,
10.1,Treinta y Tres (Ruta 8),-33.2419,-54.4019,POINT (-54.4019 -33.2419),0000000101,,,DINAGUA,Telemetrica,HQT,30 min,,,
17.1,Puente Mauá,-32.5728,-53.3767,POINT (-53.3767 -32.5728),0000000171,,,DINAGUA,Telemetrica,H,Horaria,,,
36.0,Punta San Luis,-33.5217,-53.5428,POINT (-53.5428 -33.5217),0000000360,,,DINAGUA,Telemetrica,H,30 min,,,
44.0,Fray Marcos,-34.2161,-55.7411,POINT (-55.7411 -34.2161),0000000440,,,DINAGUA,Telemetrica,HQT,30 min,SantaLucia,1.0,
45.0,Laguna del Sauce (Vertedero),-34.8622,-55.0694,POINT (-55.0694 -34.8622),0000000450,,,DINAGUA,Telemetrica,H,30 min,,,
46.1,San Carlos (Puente Ruta 9),-34.7694,-54.9008,POINT (-54.9008 -34.7694),0000000461,,,DINAGUA,Telemetrica,HQT,30 min,,,
53.1,Florida (Puente Ruta 5),-34.0911,-56.2033,POINT (-56.2033 -34.0911),0000000531,,,DINAGUA,Telemetrica,HQ,30 min,SantaLucia,1.0,
59.1,Paso Pache (Ruta 5 Nueva),-34.3647,-56.2492,POINT (-56.2492 -34.3647),0000000591,,,DINAGUA,Telemetrica,HQ,30 min,SantaLucia,1.0,
61.0,Paso de la Compañia,-31.5775,-55.4656,POINT (-55.4656 -31.5775),0000000610,,,DINAGUA,Telemetrica,HQT,30 min,,,
64.0,Paso Mazangano,-32.1097,-54.6672,POINT (-54.6672 -32.1097),0000000640,,,DINAGUA,Telemetrica,HQ,30 min,,,
71.0,Pan de Azúcar (Puente Ruta 9),-34.7811,-55.2336,POINT (-55.2336 -34.7811),0000000710,,,DINAGUA,Telemetrica,HT,30 min,,,
82.0,Paso Andrés Pérez,-32.1781,-57.2369,POINT (-57.2369 -32.1781),0000000820,,,DINAGUA,Telemetrica,HQT,30 min,,,
67.1,Laguna Garzón,-34.7786,-54.5758,POINT (-54.5758 -34.7786),0000000671,,,DINAGUA,Telemetrica,HT,30 min,,,
77.0,Canelón Grande (Presa),-34.4558,-56.2636,POINT (-56.2636 -34.4558),0000000770,,,DINAGUA,Telemetrica,H,Horaria,,,
97.0,Paso Dragón,-32.7636,-53.7189,POINT (-53.7189 -32.7636),0000000970,,,DINAGUA,Telemetrica,HQ,30 min,,,
98.0,Lago Merín,-32.7394,-53.2558,POINT (-53.2558 -32.7394),0000000980,,,DINAGUA,Telemetrica,H,30 min,,,
117.0,Paso Roldán,-34.2675,-55.4542,POINT (-55.4542 -34.2675),0000001170,,,DINAGUA,Telemetrica,HQT,30 min,SantaLucia,1.0,
118.0,25 de Agosto,-34.4156,-56.4153,POINT (-56.4153 -34.4156),0000001180,,,DINAGUA,Telemetrica,HT,30 min,SantaLucia,1.0,
140.0,Dayman (Puente Ruta 3),-31.4589,-57.9031,POINT (-57.9031 -31.4589),0000001400,,,DINAGUA,Telemetrica,HQT,30 min,,,
141.0,Queguay (Puente Ruta 3),-32.1356,-57.9386,POINT (-57.9386 -32.1356),0000001410,,,DINAGUA,Telemetrica,HQT,30 min,,,
191.0,Barra del Chuy,-33.7486,-53.3831,POINT (-53.3831 -33.7486),0000001910,,,DINAGUA,Telemetrica,HT,30 min,,,
110.0,San Luis,-33.6017,-53.7242,POINT (-53.7242 -33.6017),0000001100,,,DINAGUA,Telemetrica,HT,30 min,,,
115.0,Picada de Varela,-34.3189,-56.7097,POINT (-56.7097 -34.3189),0000001150,,,DINAGUA,Telemetrica,HT,30 min,SantaLucia,1.0,
133.0,Santa Lucia (Ruta 11),-34.4497,-56.4011,POINT (-56.4011 -34.4497),0000001330,,,DINAGUA,Telemetrica,HQT,30 min,SantaLucia,1.0,
130.0,Juan Lacaze,-34.4417,-57.4442,POINT (-57.4442 -34.4417),0000001300,,,DINAGUA,Telemetrica,HT,30 min,,,
185.0,Laguna Castillos,-34.2844,-53.9031,POINT (-53.9031 -34.2844),0000001850,,,DINAGUA,Telemetrica,HT,30 min,,,
52.0,Paso del Borracho,-31.87573,-55.47099,POINT (-55.47099 -31.87573),0000000520,,,DINAGUA,Telemetrica,HQT,30 min,,,
55.1,Picada de Coelho,-32.03367,-55.36637,POINT (-55.36637 -32.03367),0000000551,,,DINAGUA,Telemetrica,HQT,30 min,,,
62.0,Po.de los Mellizos (Puente R3),-32.90724,-57.41358,POINT (-57.41358 -32.90724),0000000620,,,DINAGUA,Telemetrica,HQT,30 min,,,
83.0,Punta del Este,-34.96446,-54.95163,POINT (-54.95163 -34.96446),0000000830,,,DINAGUA,Telemetrica,H,30 min,,,
90.0,La Paloma,-34.65456,-54.14266,POINT (-54.14266 -34.65456),0000000900,,,DINAGUA,Telemetrica,HT,30 min,,,
96.0,Paso Borches,-32.53026,-54.13139,POINT (-54.13139 -32.53026),0000000960,,,DINAGUA,Telemetrica,HQ,30 min,,,
113.0,Piriápolis,-34.87724,-55.28003,POINT (-55.28003 -34.87724),0000001130,,,DINAGUA,Telemetrica,HT,30 min,,,
121.0,Ao. Del Sauce (Ruta 9 Vieja),-34.74016369,-55.08029379,POINT (-55.08029379 -34.74016369),0000001210,,,DINAGUA,Telemetrica,HT,30 min,,,
123.0,Paso Baltasar,-31.72834,-55.77118,POINT (-55.77118 -31.72834),0000001230,,,DINAGUA,Telemetrica,HQT,30 min,,,
174.0,Maldonado Pte. R-9,-34.7476,-54.95316,POINT (-54.95316 -34.7476),0000001740,,,DINAGUA,Telemetrica,HQT,30 min,,,
INIA1,Salto Grande,-31.273,-57.891,POINT (-57.891 -31.273),,,,INIA,Convencional,PE,Diaria y Horaria,,,
INIA2,Tacuarembó - Glencoe,-32.006,-57.134,POINT (-57.134 -32.006),,,,INIA,Convencional,PE,Diaria y Horaria,,,
INIA3,Tacuarembó - La Magnolia,-31.709,-55.827,POINT (-55.827 -31.709),,,,INIA,Convencional,PE,Diaria y Horaria,,,
INIA4,Durazno,-33.314,-56.524,POINT (-56.524 -33.314),,,,INIA,Automática,P,Horaria,,,
INIA5,La Estanzuela,-34.337,-57.692,POINT (-57.692 -34.337),,,,INIA,Convencional,PE,Diaria y Horaria,,,
INIA6,Las Brujas,-34.672,-56.34,POINT (-56.34 -34.672),,,,INIA,Convencional,PE,Diaria y Horaria,,,
INIA7,Rocha,-34.59,-54.41,POINT (-54.41 -34.59),,,,INIA,Automática,P,Horaria,,,
INIA8,INIA TyT - Palo Pique,-33.263,-54.487,POINT (-54.487 -33.263),,,,INIA,Convencional,PE,Diaria y Horaria,,,
A826,ALEGRETE,-29.709,-55.526,POINT (-55.526 -29.709),,,,INMET,Automatica,P,Horaria,,,11F906A561D5D3513AE69C3A5A5AA1470C490574
A827,BAGE,-31.348,-54.013,POINT (-54.013 -31.348),,,,INMET,Automatica,P,Horaria,,,F9BD4B0024CFF2D2DDBAF94323DFFDE2B7E877E9
A845,BOM JARDIM DA SERRA - MORRO DA IGREJA,-28.127,-49.48,POINT (-49.48 -28.127),,,,INMET,Automatica,P,Horaria,,,474828553B2AF6E6E9894D1AC043CB51EC252709
A859,CACADOR,-26.819,-50.986,POINT (-50.986 -26.819),,,,INMET,Automatica,P,Horaria,,,97F15C40DAD0E1DB21AEF626A5EE8CB3B9B5DCFF
A898,CAMPOS NOVOS,-27.389,-51.216,POINT (-51.216 -27.389),,,,INMET,Automatica,P,Horaria,,,579306F28FD733AA2E399FBECC3D744C33E21975
A895,CHAPECO,-27.085,-52.636,POINT (-52.636 -27.085),,,,INMET,Automatica,P,Horaria,,,65A47BFC3D61C5D45F1ABE38C068AA44765F6B45
A853,CRUZ ALTA,-28.603,-53.674,POINT (-53.674 -28.603),,,,INMET,Automatica,P,Horaria,,,BFBACB0283E9936827090C02431D5AA52399AA94
A860,CURITIBANOS,-27.289,-50.604,POINT (-50.604 -27.289),,,,INMET,Automatica,P,Horaria,,,AC097D337EE7F465786B3A2CB88EC886DA291297
A848,DIONISIO CERQUEIRA,-26.287,-53.633,POINT (-53.633 -26.287),,,,INMET,Automatica,P,Horaria,,,3665718DFD72E0730F1F44FEED8835887CD2B79B
A881,DOM PEDRITO,-31.003,-54.618,POINT (-54.618 -31.003),,,,INMET,Automatica,P,Horaria,,,BDA8D21F375974C9EE95E06A9FE429FD0CD3FD77
A828,ERECHIM,-27.658,-52.306,POINT (-52.306 -27.658),,,,INMET,Automatica,P,Horaria,,,2542ECACBC790388BB80B3FBB868D5BCB525DED4
A841,JOACABA,-27.169,-51.559,POINT (-51.559 -27.169),,,,INMET,Automatica,P,Horaria,,,296C9BFC4854926C3967433B290E398EF3E7CEEA
A865,LAGES,-27.802,-50.336,POINT (-50.336 -27.802),,,,INMET,Automatica,P,Horaria,,,9F60A8B2BB7010990075E17E5270D35A32DAA32D
A844,LAGOA VERMELHA,-28.222,-51.513,POINT (-51.513 -28.222),,,,INMET,Automatica,P,Horaria,,,DDF51EF50A5734078E20E61098E18625AF05A5CE
A816,NOVO HORIZONTE,-26.406,-52.85,POINT (-52.85 -26.406),,,,INMET,Automatica,P,Horaria,,,B7FBF39C7D5556BFAC00B4A847112E40CE815139
A856,PALMEIRA DAS MISSOES,-27.92,-53.318,POINT (-53.318 -27.92),,,,INMET,Automatica,P,Horaria,,,AFB6DF69A1DB45A912A842D88C79B3ADB26F7D61
A839,PASSO FUNDO,-28.227,-52.404,POINT (-52.404 -28.227),,,,INMET,Automatica,P,Horaria,,,53F1E142CD1F014E3581C884F2CE04548268419B
A831,QUARAI,-30.369,-56.437,POINT (-56.437 -30.369),,,,INMET,Automatica,P,Horaria,,,6CA6AF4FD5AA7BB98F592BFFABA85882344432EB
A810,SANTA ROSA,-27.891,-54.48,POINT (-54.48 -27.891),,,,INMET,Automatica,P,Horaria,,,54323A6ADAE02C01AB7DFF91B545CDB8E9F2C76B
A804,SANTANA DO LIVRAMENTO,-30.751,-55.401,POINT (-55.401 -30.751),,,,INMET,Automatica,P,Horaria,,,A03F4113524916F6038EDD52E99CB61B9ABD7643
A833,SANTIAGO,-29.192,-54.886,POINT (-54.886 -29.192),,,,INMET,Automatica,P,Horaria,,,932DB847057DEF0CAB0B2C6D16491F5FE6FDF95F
A805,SANTO AUGUSTO,-27.854,-53.791,POINT (-53.791 -27.854),,,,INMET,Automatica,P,Horaria,,,4604DFCE930D9266B8C393577FEE1520C8BB67A8
A830,SAO BORJA,-28.65,-56.016,POINT (-56.016 -28.65),,,,INMET,Automatica,P,Horaria,,,62AE226A797DB18587AEBDF143B62E8F5333FF76
A815,SAO JOAQUIM,-28.276,-49.935,POINT (-49.935 -28.276),,,,INMET,Automatica,P,Horaria,,,E360B8BFD8BCD34E0806C6B5D1B1F6C369AA2594
A852,SAO LUIZ GONZAGA,-28.417,-54.963,POINT (-54.963 -28.417),,,,INMET,Automatica,P,Horaria,,,6060FBF637242A7EA81A3AA37D4F9CABB2DBED92
A857,SAO MIGUEL DO OESTE,-26.776,-53.504,POINT (-53.504 -26.776),,,,INMET,Automatica,P,Horaria,,,AFA2713A7ED5666FF26A94C1C31255E240341782
A889,SAO VICENTE DO SUL,-29.702,-54.694,POINT (-54.694 -29.702),,,,INMET,Automatica,P,Horaria,,,6DF7146F161D0D8AE0B56D8C984C7DAE9BC3CDA5
A809,URUGUAIANA,-29.84,-57.082,POINT (-57.082 -29.84),,,,INMET,Automatica,P,Horaria,,,7935E0CD25BAE757DF8EB10E89B5C56605F81BD1
A858,XANXERE,-26.939,-52.398,POINT (-52.398 -26.939),,,,INMET,Automatica,P,Horaria,,,5AE7123BC196E33F61EFF61084AAD3C93BEFB804
A832,SÃO GABRIEL,-30.341,-54.311,POINT (-54.311 -30.341),,,,INMET,Automatica,P,Horaria,,,11CC4264CA650102BD10552D2DCB27E4AC2EDA4B
A803,SANTA MARIA,-29.725,-53.721,POINT (-53.721 -29.725),,,,INMET,Automatica,P,Horaria,,,A5EE2113515A500BF8BB67F7A67ED7D62108C093
A836,JAGUARAO,-32.535,-53.376,POINT (-53.376 -32.535),,,,INMET,Automatica,P,Horaria,,,51D03619A6AD92C560AD85E00355DC2F3F5C5393
A899,SANTA VITORIA DO PALMA - BARRA DO CHUI,-33.742,-53.372,POINT (-53.372 -33.742),,,,INMET,Automatica,P,Horaria,,,FC05929E9AE333D46EF313A21C626613BD3AFD62
A802,RIO GRANDE,-32.079,-52.168,POINT (-52.168 -32.079),,,,INMET,Automatica,P,Horaria,,,74140C11FB8BFF1410E6CB18A633982660A7CADA
A887,CAPAO DO LEAO (PELOTAS),-31.803,-52.407,POINT (-52.407 -31.803),,,,INMET,Automatica,P,Horaria,,,29134D53FC8EF60F0F2E6739DAAE102E58735F4A
A811,CANGUCU,-31.403,-52.701,POINT (-52.701 -31.403),,,,INMET,Automatica,P,Horaria,,,1FB6B1B52AA09EA02E2E2E94E865435062797268
A812,CACAPAVA DO SUL,-30.545,-53.467,POINT (-53.467 -30.545),,,,INMET,Automatica,P,Horaria,,,0F2EF2B1A23A9F044115E83673EA8664BB286255
A893,ENCRUZILHADA DO SUL,-30.543,-52.525,POINT (-52.525 -30.543),,,,INMET,Automatica,P,Horaria,,,D707606553F65E13F2569B1FEEA2B5F8BEBAA621
A838,CAMAQUA,-30.808,-51.834,POINT (-51.834 -30.808),,,,INMET,Automatica,P,Horaria,,,85A4344253A2DF8FB6A7BC7B6EFBACE215FA4DFB
77500000,QUARAI,-30.3844,-56.4656,POINT (-56.4656 -30.3844),,,,ANA,Online,PHQ,15 min,,,
77150000,URUGUAIANA,-29.7486,-57.0886,POINT (-57.0886 -29.7486),,,,ANA,Online,PHQ,15 min,,,
76750000,ALEGRETE,-29.7683,-55.7875,POINT (-55.7875 -29.7683),,,,ANA,Online,PHQ,15 min,,,
75900000,ITAQUI,-29.1175,-56.5544,POINT (-56.5544 -29.1175),,,,ANA,Online,PHQ,15 min,,,
76800000,PASSO MARIANO PINTO,-29.3092,-56.0553,POINT (-56.0553 -29.3092),,,,ANA,Online,PHQ,15 min,,,
76560000,MANOEL VIANA,-29.5958,-55.4814,POINT (-55.4814 -29.5958),,,,ANA,Online,PHQ,15 min,,,
76310000,ROSARIO DO SUL,-30.2428,-54.9169,POINT (-54.9169 -30.2428),,,,ANA,Online,PHQ,15 min,,,
3154011,ADUANA ACEGUÁ,-31.8661,-54.1672,POINT (-54.1672 -31.8661),,,,ANA,Online,P,15 min,,,
2956013,CERRO DO COQUEIRO,-29.7786,-56.5206,POINT (-56.5206 -29.7786),,,,ANA,Online,P,15 min,,,
3155005,POZZOBON,-31.2397,-55.0944,POINT (-55.0944 -31.2397),,,,ANA,Online,P,15 min,,,
3353020,VITÓRIA PALMAR,-33.2381,-53.0619,POINT (-53.0619 -33.2381),,,,ANA,Online,P,15 min,,,
3054029,AZEVEDO SODRÉ,-30.0972,-54.6439,POINT (-54.6439 -30.0972),,,,ANA,Online,P,15 min,,,
3154013,BENTO RENGO,-31.27,-54.5311,POINT (-54.5311 -31.27),,,,ANA,Online,P,15 min,,,
3055018,CABECEIRA SAICÃ,-30.2269,-55.1553,POINT (-55.1553 -30.2269),,,,ANA,Online,P,15 min,,,
3055019,CERRO DO COMBATE,-30.5469,-55.3197,POINT (-55.3197 -30.5469),,,,ANA,Online,P,15 min,,,
88370150,CORSAN ARROIO GRANDE,-32.2394,-53.0897,POINT (-53.0897 -32.2394),,,,ANA,Online,P,15 min,,,
3253030,CORSAN HERVAL,-32.0289,-53.3978,POINT (-53.3978 -32.0289),,,,ANA,Online,P,15 min,,,
2954040,COXILHA DO PAU FINADO,-29.9511,-54.3317,POINT (-54.3317 -29.9511),,,,ANA,Online,P,15 min,,,
76240000,DOM PEDRITO/CORSAN,-30.9947,-54.6856,POINT (-54.6856 -30.9947),,,,ANA,Online,PH,15 min,,,
88690050,ECLUSA SÃO GONÇALO,-31.8111,-52.3892,POINT (-52.3892 -31.8111),,,,ANA,Online,PH,15 min,,,
3056029,ESTÂNCIA CATY,-30.4247,-56.0206,POINT (-56.0206 -30.4247),,,,ANA,Online,P,15 min,,,
79400400,ESTÂNCIA DA LAGOA,-31.6122,-54.3908,POINT (-54.3908 -31.6122),,,,ANA,Online,PH,15 min,,,
3055021,ESTÂNCIA SANTA HILMA,-30.9453,-55.6664,POINT (-55.6664 -30.9453),,,,ANA,Online,P,15 min,,,
3055017,ESTÂNCIA SARANDI,-30.665,-55.9531,POINT (-55.9531 -30.665),,,,ANA,Online,P,15 min,,,
2955024,FAZENDA CORDILHEIRA,-29.4264,-55.1583,POINT (-55.1583 -29.4264),,,,ANA,Online,P,15 min,,,
3054030,FAZENDA SÃO GABRIEL,-30.4811,-54.5533,POINT (-54.5533 -30.4811),,,,ANA,Online,P,15 min,,,
79200010,FAZENDA SÃO JORGE / BAGÉ,-31.4533,-54.13,POINT (-54.13 -31.4533),,,,ANA,Online,PH,15 min,,,
76660900,FUNDAÇÃO MARONNA ALEGRETE,-30.0681,-55.6594,POINT (-55.6594 -30.0681),,,,ANA,Online,P,15 min,,,
88150900,GASTAUD MANGUEIRA,-32.8336,-52.6436,POINT (-52.6436 -32.8336),,,,ANA,Online,P,15 min,,,
88009000,GERIBATU,-33.5022,-53.1478,POINT (-53.1478 -33.5022),,,,ANA,Online,PH,15 min,,,
76500040,JACAQUÁ,-29.6869,-55.1964,POINT (-55.1964 -29.6869),,,,ANA,Online,PH,15 min,,,
3054028,MARCO DAS ÁGUAS,-30.7478,-54.1375,POINT (-54.1375 -30.7478),,,,ANA,Online,P,15 min,,,
76220900,PASSO DA FERRARIA,-31.1417,-54.3806,POINT (-54.3806 -31.1417),,,,ANA,Online,PH,15 min,,,
88260000,PASSO DAS PEDRAS,-32.5194,-53.4558,POINT (-53.4558 -32.5194),,,,ANA,Online,PHQ,15 min,,,
87920500,PASSO DO CANDOMBE,-31.29,-52.1175,POINT (-52.1175 -31.29),,,,ANA,Online,PH,15 min,,,
76741900,PASSO DO OSÓRIO ALEGRETE,-29.9514,-55.5992,POINT (-55.5992 -29.9514),,,,ANA,Online,PH,15 min,,,
85480010,PASSO DO ROCHA,-30.2319,-53.9856,POINT (-53.9856 -30.2319),,,,ANA,Online,P,15 min,,,
76290000,PASSO DOS FARRAPOS,-30.5183,-55.0431,POINT (-55.0431 -30.5183),,,,ANA,Online,PH,15 min,,,
3154015,PASSO SÃO LUIS BAGÉ,-31.5119,-54.5114,POINT (-54.5114 -31.5119),,,,ANA,Online,P,15 min,,,
87237000,PONTE ARROIO TURUÇU,-31.3678,-52.2928,POINT (-52.2928 -31.3678),,,,ANA,Online,PH,15 min,,,
87550050,PONTE CAMAQUÃ CHICO,-30.9083,-53.8206,POINT (-53.8206 -30.9083),,,,ANA,Online,P,15 min,,,
88550010,PONTE DO IMPÉRIO PIRATINI,-31.7192,-52.9008,POINT (-52.9008 -31.7192),,,,ANA,Online,PH,15 min,,,
76300000,PONTE IBICUI DA ARMADA,-30.2808,-54.9031,POINT (-54.9031 -30.2808),,,,ANA,Online,P,15 min,,,
76150050,PONTE IBIROCAÍ,-29.4683,-56.4756,POINT (-56.4756 -29.4683),,,,ANA,Online,PH,15 min,,,
76431995,PONTE RIO JAGUARI,-29.4997,-54.6889,POINT (-54.6889 -29.4997),,,,ANA,Online,PH,15 min,,,
76380050,RIO CACEQUI,-29.895,-54.8531,POINT (-54.8531 -29.895),,,,ANA,Online,PH,15 min,,,
88060200,TAIM MANGUEIRA,-32.5408,-52.5394,POINT (-52.5394 -32.5408),,,,ANA,Online,PH,15 min,,,
88060210,TAIM MIRIM,-32.5397,-52.5392,POINT (-52.5392 -32.5397),,,,ANA,Online,PH,15 min,,,
3054031,TIARAJU SÃO GABRIEL,-30.2447,-54.3697,POINT (-54.3697 -30.2447),,,,ANA,Online,P,15 min,,,
3154016,TORQUATO SEVERO,-31.0222,-54.1847,POINT (-54.1847 -31.0222),,,,ANA,Online,P,15 min,,,
3153035,USINA TERMOELÉTRICA PIRATINI,-31.2419,-53.1808,POINT (-53.1808 -31.2419),,,,ANA,Online,P,15 min,,,
3154017,VILA SERRILHADA,-31.4378,-54.7122,POINT (-54.7122 -31.4378),,,,ANA,Online,P,15 min,,,
A50BE1C2,Solari,-29.37,-58.18,POINT (-58.18 -29.37),A50BE1C2,,,CTM Salto Grande,Automática,P,15 min,,,
A50BF2B4,Baibene,-29.6,-58.15,POINT (-58.15 -29.6),A50BF2B4,,,CTM Salto Grande,Automática,P,15 min,,,
A50BC72E,Miriñay medio,-29.39,-57.65,POINT (-57.65 -29.39),A50BC72E,,,CTM Salto Grande,Automática,P,15 min,,,
A50CD66C,Bonpland,-29.82,-57.44,POINT (-57.44 -29.82),A50CD66C,,,CTM Salto Grande,Automática,P,15 min,,,
A50C0004,Curuzú cuatiá,-29.78,-58.03,POINT (-58.03 -29.78),A50C0004,,,CTM Salto Grande,Automática,P,15 min,,,
A50C26E8,Los Conquistadores,-30.58,-58.45,POINT (-58.45 -30.58),A50C26E8,,,CTM Salto Grande,Automática,P,15 min,,,
A50CC51A,Mocoreta rio,-30.63,-57.98,POINT (-57.98 -30.63),A50CC51A,,,CTM Salto Grande,Automática,PH,15 min,,,
A50C5078,Mocoreta medio,-30.21,-57.97,POINT (-57.97 -30.21),A50C5078,,,CTM Salto Grande,Automática,P,15 min,,,
A50C359E,Chajarí,-30.78,-58.15,POINT (-58.15 -30.78),A50C359E,,,CTM Salto Grande,Automática,P,15 min,,,
A50012EE,Concordia,-31.38,-58.02,POINT (-58.02 -31.38),A50012EE,,,CTM Salto Grande,Automática,PHQ,15 min,,,
A5003402,Paso de la cruz,-30.3,-57.32,POINT (-57.32 -30.3),A5003402,,,CTM Salto Grande,Automática,PHQ,15 min,,,
A500D7F0,Paso del remanso,-30.12,-56.73,POINT (-56.73 -30.12),A500D7F0,,,CTM Salto Grande,Automática,P,15 min,,,
A500B216,Bernabé rivera,-30.3,-56.95,POINT (-56.95 -30.3),A500B216,,,CTM Salto Grande,Automática,P,15 min,,,
A50C65E2,Artigas,-30.3928,-56.4567,POINT (-56.4567 -30.3928),A50C65E2,,,CTM Salto Grande,Automática,PHQ,15 min,,,
A50079DA,Cuareim Río,-30.586,-56.23,POINT (-56.23 -30.586),A50079DA,,,CTM Salto Grande DINAGUA,Automática,PH,15 min,,,
A5006AAC,Catalán Grande,-30.637,-56.327,POINT (-56.327 -30.637),A5006AAC,,,CTM Salto Grande DINAGUA,Automática,PH,15 min,,,
A50B74A0,Tomás gomensoro,-30.44,-57.45,POINT (-57.45 -30.44),A50B74A0,,,CTM Salto Grande,Automática,P,15 min,,,
A50B413A,Paso Farías,-30.49,-57.14,POINT (-57.14 -30.49),A50B413A,,,CTM Salto Grande,Automática,P,15 min,,,
A50B37AA,Javier de  viana,-30.44,-56.79,POINT (-56.79 -30.44),A50B37AA,,,CTM Salto Grande,Automática,P,15 min,,,
A50B8424,Colonia palma,-30.59,-57.69,POINT (-57.69 -30.59),A50B8424,,,CTM Salto Grande,Automática,P,15 min,,,
A500A160,Cuaró,-30.62,-56.91,POINT (-56.91 -30.62),A500A160,,,CTM Salto Grande,Automática,P,15 min,,,
A500647E,Cerro amarillo,-30.62,-56.63,POINT (-56.63 -30.62),A500647E,,,CTM Salto Grande,Automática,P,15 min,,,
A5007708,Paso campamento,-30.8,-56.77,POINT (-56.77 -30.8),A5007708,,,CTM Salto Grande,Automática,P,15 min,,,
A50B524C,Baltasar brum,-30.73,-57.32,POINT (-57.32 -30.73),A50B524C,,,CTM Salto Grande,Automática,P,15 min,,,
A50B67D6,Diego lamas,-30.77,-57.03,POINT (-57.03 -30.77),A50B67D6,,,CTM Salto Grande,Automática,P,15 min,,,
A50B9752,Belén,-30.79,-57.79,POINT (-57.79 -30.79),A50B9752,,,CTM Salto Grande,Automática,P,15 min,,,
A500C486,Meneses,-30.87,-56.38,POINT (-56.38 -30.87),A500C486,,,CTM Salto Grande,Automática,P,15 min,,,
A50051E4,Catalán,-30.78,-56.25,POINT (-56.25 -30.78),A50051E4,,,CTM Salto Grande,Automática,P,15 min,,,
A501D50A,Sarandí de arapey,-30.98,-56.2,POINT (-56.2 -30.98),A501D50A,,,CTM Salto Grande,Automática,P,15 min,,,
A501531E,Sequeira,-31.03,-56.87,POINT (-56.87 -31.03),A501531E,,,CTM Salto Grande,Automática,P,15 min,,,
A501C67C,Guaviyú de arapey,-31.02,-56.57,POINT (-56.57 -31.02),A501C67C,,,CTM Salto Grande,Automática,P,15 min,,,
A5014068,Colonia lavalleja,-31.1,-57.03,POINT (-57.03 -31.1),A5014068,,,CTM Salto Grande,Automática,P,15 min,,,
A50B24DC,Arapey Chico,-30.96,-57.46,POINT (-57.46 -30.96),A50B24DC,,,CTM Salto Grande,Automática,PHQ,15 min,,,
A50CB38A,Arapey Grande R4,-31.231,-57.097,POINT (-57.097 -31.231),A50CB38A,,,CTM Salto Grande,Automática,PHQ,15 min,,,
A50B0230,Arapey Grande,-30.98,-57.52,POINT (-57.52 -30.98),A50B0230,,,CTM Salto Grande,Automática,PHQ,15 min,,,
A50B1146,Espinillar,-30.971187,-57.880716,POINT (-57.880716 -30.971187),A50B1146,,,CTM Salto Grande,Automática,PH,15 min,,,
A5002774,Salto grande,-31.27,-57.92,POINT (-57.92 -31.27),A5002774,,,CTM Salto Grande,Automática,PH,15 min,,,
A50BB1BE,Itapebí,-31.25,-57.68,POINT (-57.68 -31.25),A50BB1BE,,,CTM Salto Grande,Automática,P,15 min,,,
A50BA2C8,Cuchilla de salto,-31.43,-57.43,POINT (-57.43 -31.43),A50BA2C8,,,CTM Salto Grande,Automática,P,15 min,,,
A501A39A,Paso potrero,-31.47,-56.83,POINT (-56.83 -31.47),A501A39A,,,CTM Salto Grande,Automática,P,15 min,,,
A501B0EC,Cerro chato,-31.27,-56.63,POINT (-56.63 -31.27),A501B0EC,,,CTM Salto Grande,Automática,P,15 min,,,
A5016684,Arerunguá,-31.67,-56.63,POINT (-56.63 -31.67),A5016684,,,CTM Salto Grande,Automática,P,15 min,,,
A5019600,Puntas de valentín,-31.18,-57.23,POINT (-57.23 -31.18),A5019600,,,CTM Salto Grande,Automática,P,15 min,,,
A50175F2,Quintana,-31.4,-56.37,POINT (-56.37 -31.4),A50175F2,,,CTM Salto Grande,Automática,P,15 min,,,
A50C7694,Miriñay San Roquito,-29.297,-57.565,POINT (-57.565 -29.297),A50C7694,,,CTM Salto Grande,Automática,PH,15 min,,,
A50BD458,Miriñay Po. Ledesma,-29.85,-57.68,POINT (-57.68 -29.85),A50BD458,,,CTM Salto Grande,Automática,PHQ,15 min,,,
A5000F4A,Colonia libertad,-30.03,-57.82,POINT (-57.82 -30.03),A5000F4A,,,CTM Salto Grande,Automática,P,15 min,,,
A50C1372,Cazadores correntinos,-29.98,-58.28,POINT (-58.28 -29.98),A50C1372,,,CTM Salto Grande,Automática,P,15 min,,,
A50C8610,Mocoreta lago,-30.68,-57.82,POINT (-57.82 -30.68),A50C8610,,,CTM Salto Grande,Automática,PH,15 min,,,
A50C9566,Monte Caseros,-30.23,-57.62,POINT (-57.62 -30.23),A50C9566,,,CTM Salto Grande,Automática,PH,15 min,,,
A50C430E,S. Jaime de Arruabarrena,-30.34,-58.32,POINT (-58.32 -30.34),A50C430E,,,CTM Salto Grande,Automática,P,15 min,,,
A50CA0FC,Pujol,-30.42,-57.85,POINT (-57.85 -30.42),A50CA0FC,,,CTM Salto Grande,Automática,P,15 min,,,
A501258E,Salto,-31.39,-57.98,POINT (-57.98 -31.39),A501258E,,,CTM Salto Grande,Automática,PH,15 min,,,
A50094FA,Paso del Leon,-30.12,-57.08,POINT (-57.08 -30.12),A50094FA,,,CTM Salto Grande,Automática,P,15 min,,,
A5018576,Alto Arapey,-31.67,-56.77,POINT (-56.77 -31.67),A5018576,,,CTM Salto Grande,Automática,P,15 min,,,
A500878C,Alto Cuareim,-31.05,-55.85,POINT (-55.85 -31.05),A500878C,,,CTM Salto Grande,Automática,PH,15 min,,,
A5004292,Paso de los libres,-29.73,-57.08,POINT (-57.08 -29.73),A5004292,,,CTM Salto Grande,Automática,PH,15 min,,,
A500F11C,Santo Tomé,-28.53,-56.03,POINT (-56.03 -28.53),A500F11C,,,CTM Salto Grande,Automática,PH,15 min,,,
A500E26A,Garruchos,-28.17,-55.63,POINT (-55.63 -28.17),A500E26A,,,CTM Salto Grande,Automática,PHQ,15 min,,,
A5010362,San Javier,-27.88,-55.12,POINT (-55.12 -27.88),A5010362,,,CTM Salto Grande,Automática,PHQ,15 min,,,
A5011014,El Soberbio,-27.3,-54.18,POINT (-54.18 -27.3),A5011014,,,CTM Salto Grande,Automática,PHQ,15 min,,,
A50136F8,Pepiri Mini,-27.153304,-53.933283,POINT (-53.933283 -27.153304),A50136F8,,,CTM Salto Grande,Automática,PH,15 min,,,
A5004C40,Federación OTT,-30.996,-57.913,POINT (-57.913 -30.996),A5004C40,,,CTM Salto Grande,Automática,PH,15 min,,,
A5005F36,El Trompo,-30.971,-58.247,POINT (-58.247 -30.971),A5005F36,,,CTM Salto Grande,Automática,P,15 min,,,
A5003AD0,Aguapei,-28.417,-56.542,POINT (-56.542 -28.417),A5003AD0,,,CTM Salto Grande,Automática,PH,15 min,,,
A5001C3C,Yapeyú,-29.47,-56.812,POINT (-56.812 -29.47),A5001C3C,,,CTM Salto Grande,Automática,PH,15 min,,,
A50029A6,Alvear,-29.113,-56.556,POINT (-56.556 -29.113),A50029A6,,,CTM Salto Grande,Automática,PHQ,15 min,,,
A500CA54,Dayman Ruta 3,-31.459,-57.903,POINT (-57.903 -31.459),A500CA54,,,CTM Salto Grande,Automática,PH,15 min,,,
A500D922,Queguay Ruta 3,-32.135,-57.939,POINT (-57.939 -32.135),A500D922,,,CTM Salto Grande,Automática,PH,15 min,,,
A5009A28,Santa Ana,-30.905451,-57.935894,POINT (-57.935894 -30.905451),A5009A28,,,CTM Salto Grande,Automática,PH,15 min,,,
A500BCC4,Loma Alta,-29.05663,-57.08769,POINT (-57.08769 -29.05663),A500BCC4,,,CTM Salto Grande,Automática,P,15 min,,,
A500AFB2,Uguay,-28.691829,-57.480465,POINT (-57.480465 -28.691829),A500AFB2,,,CTM Salto Grande,Automática,P,15 min,,,
1338,PASO MANUEL DIAZ (RHT),-31.52808,-55.68467,POINT (-55.68467 -31.52808),UTE-0001,Manuel Díaz,Manuel Díaz,UTE,Convencional - Automatica,PHQ,Diaria y Horaria,,,
1339,CUÑAPIRU (RHT),-31.53022,-55.5825,POINT (-55.5825 -31.53022),UTE-0002,Cuñapirú,Cuñapirú,UTE,Convencional - Automatica,PHQ,Diaria y Horaria,,,
1484,ANSINA (Paso BORRACHO) (RHT),-31.87642,-55.46778,POINT (-55.46778 -31.87642),UTE-0003,Borracho,Ansina,UTE,Convencional - Automatica,PHQ,Diaria y Horaria,,,
1697,PASO LAGUNA II (RHT),-32.34411,-55.46458,POINT (-55.46458 -32.34411),UTE-0008,Laguna II,Laguna II,UTE,Convencional - Automatica,PHQ,Diaria y Horaria,,,
1741,PASO LAS PIEDRAS (RHT),-32.45103,-55.44664,POINT (-55.44664 -32.45103),UTE-0012,Paso Las Piedras,Paso Las Piedras,UTE,Convencional - Automatica,PHQ,Diaria y Horaria,,,
1915,PASO DE LOS TOROS (RHT),-32.79878,-56.52919,POINT (-56.52919 -32.79878),UTE-0015,Paso de los Toros,E.M. Paso de los Toros,UTE,Convencional - Automatica,PH,Diaria y Horaria,,,
2215,SARANDI DEL YI (RHT),-33.33961,-55.61436,POINT (-55.61436 -33.33961),UTE-0017,Sarandí del Yi,Sarandí del Yí,UTE,Convencional - Automatica,PHQ,Diaria y Horaria,,,
2257,POLANCO DEL YI (RHT),-33.47342,-56.16194,POINT (-56.16194 -33.47342),UTE-0018,Polanco del Yi,Polanco del Yí,UTE,Convencional - Automatica,PHQ,Diaria y Horaria,,,
2206,PUENTE NUEVO DURAZNO (RHT),-33.37328,-56.51194,POINT (-56.51194 -33.37328),UTE-0019,Durazno,E.M. Durazno,UTE,Convencional - Automatica,PHQ,Diaria y Horaria,,,
0000,PUENTE VIEJO DURAZNO (CORRELACIÓN),-33.359025,-56.52611,POINT (-56.52611 -33.359025),UTE-0020,Durazno Puente Viejo,,UTE,Convencional,H,Horaria,,,
2157,BARRA DE PORONGOS (RHT),-33.26233,-56.85494,POINT (-56.85494 -33.26233),UTE-0021,Barra de Porongos,Barra de Porongos,UTE,Convencional - Automatica,PHQ,Diaria y Horaria,,,
2145,PUENTE MERCEDES (RHT),-33.24247,-58.01814,POINT (-58.01814 -33.24247),UTE-0022,Mercedes,E.M. Mercedes,UTE,Convencional - Automatica,PHQ,Diaria y Horaria,,,
2237,VILLA SORIANO (RHT),-33.39078,-58.31792,POINT (-58.31792 -33.39078),UTE-0023,Villa Soriano,Villa Soriano,UTE,Convencional - Automatica,PH,Diaria y Horaria,,,
1960,PRESA BAYGORRIA (RHT),-32.87444,-56.80664,POINT (-56.80664 -32.87444),UTE-0024,,UTE Baygorria,UTE,Convencional - Automatica,P,Diaria y Horaria,,,
1963,PRESA RINCON DEL BONETE (RHT),-32.83194,-56.42417,POINT (-56.42417 -32.83194),UTE-0025,,E.M. Bonete,UTE,Convencional - Automatica,P,Diaria y Horaria,,,
1526,PASO COELHO (RHT),-32.0395,-55.36103,POINT (-55.36103 -32.0395),UTE-0027,Coelho,Picada de Coelho,UTE,Convencional - Automatica,PHQ,Diaria y Horaria,,,
1613,PASO LAS TOSCAS (RHT),-32.15692,-55.02661,POINT (-55.02661 -32.15692),UTE-0028,Las Toscas,Paso de las Toscas,UTE,Convencional - Automatica,PHQ,Diaria y Horaria,,,
1617,PASO MAZANGANO (RHT),-32.10522,-54.67258,POINT (-54.67258 -32.10522),UTE-0029,Mazangano,Paso Mazangano,UTE,Convencional - Automatica,PHQ,Diaria y Horaria,,,
1653,PASO LAGUNA I (RHT),-32.25044,-55.42242,POINT (-55.42242 -32.25044),UTE-0030,Laguna I,Paso Laguna,UTE,Convencional - Automatica,PHQ,Diaria y Horaria,,,
1658,PASO AGUIAR (RHT),-32.28514,-54.84131,POINT (-54.84131 -32.28514),UTE-0031,Aguiar,Paso Aguiar,UTE,Convencional - Automatica,PHQ,Diaria y Horaria,,,
1743,PASO PEREIRA (RHT),-32.44356,-55.22658,POINT (-55.22658 -32.44356),UTE-0032,Pereira,Paso Pereira,UTE,Convencional - Automatica,PHQ,Diaria y Horaria,,,
1819,SALSIPUEDES (RHT),-32.64786,-56.5925,POINT (-56.5925 -32.64786),UTE-0033,Salsipuedes Ruta 20,Salsipuedes,UTE,Convencional - Automatica,PHQ,Diaria y Horaria,,,
1826,SAN GREGORIO (RHT),-32.62069,-55.8295,POINT (-55.8295 -32.62069),UTE-0034,San Gregorio de Polanco,San Gregorio,UTE,Convencional - Automatica,PH,Diaria y Horaria,,,
1558,PIEDRA SOLA (RHT),-32.08222,-56.3085,POINT (-56.3085 -32.08222),UTE-0035,,Piedra Sola,UTE,Convencional - Automatica,P,Diaria y Horaria,,,
2153,PASO LUGO (RHT),-33.24814,-57.26161,POINT (-57.26161 -33.24814),UTE-0037,Lugo,Paso de Lugo,UTE,Convencional - Automatica,PHQ,Diaria y Horaria,,,
2052,PRESA CONSTITUCION (RHT),-33.06708,-57.46081,POINT (-57.46081 -33.06708),UTE-0038,,E.M. Palmar,UTE,Convencional - Automatica,P,Diaria y Horaria,,,
2016,San Jorge (Carpintería),-32.8425,-55.8967,POINT (-55.8967 -32.8425),UTE-0039,,,UTE,Convencional,P,Diaria,,,
1686,Tiatucurá,-32.313,-56.4946,POINT (-56.4946 -32.313),UTE-0041,,,UTE,Convencional,P,Diaria,,,
1688,Estancia Quadros,-32.3728,-56.3916,POINT (-56.3916 -32.3728),UTE-0042,,,UTE,Convencional,P,Diaria,,,
1730,Estancia Itacuru (La Fe),-32.5393,-56.6442,POINT (-56.6442 -32.5393),UTE-0043,,,UTE,Convencional,P,Diaria,,,
1732,Peralta,-32.4944,-56.3551,POINT (-56.3551 -32.4944),UTE-0044,,,UTE,Convencional,P,Diaria,,,
1817,Estancia Rolón - Piquet,-32.6752,-56.8979,POINT (-56.8979 -32.6752),UTE-0046,,,UTE,Convencional,P,Diaria,,,
1818,Las Cañadas,-32.5694,-56.6306,POINT (-56.6306 -32.5694),UTE-0047,,,UTE,Convencional,P,Diaria,,,
1867,Estancia Olaso,-32.7174,-56.4565,POINT (-56.4565 -32.7174),UTE-0048,,,UTE,Convencional,P,Diaria,,,
1961,Estancia Real,-32.9466,-56.628,POINT (-56.628 -32.9466),UTE-0051,,,UTE,Convencional,P,Diaria,,,
2061,Carlos Reyles,-33.0611,-56.4701,POINT (-56.4701 -33.0611),UTE-0052,,,UTE,Convencional,P,Diaria,,,
2053,El Aguila,-33.0398,-57.2744,POINT (-57.2744 -33.0398),UTE-0054,,,UTE,Convencional,P,Diaria,,,
2154,Marincho,-33.3844,-57.1636,POINT (-57.1636 -33.3844),UTE-0056,,,UTE,Convencional,P,Diaria,,,
22222,Los Tapes - Feliciano,-33.1858,-56.8086,POINT (-56.8086 -33.1858),UTE-0057,,,UTE,Convencional,P,Diaria,,,
1909,Grecco,-32.8178,-57.0433,POINT (-57.0433 -32.8178),UTE-0058,,,UTE,Convencional,P,Diaria,,,
2167,Rossell y Rius,-33.1845,-55.6968,POINT (-55.6968 -33.1845),UTE-0059,,,UTE,Convencional,P,Diaria,,,
2354,Gallinal,-33.6604,-55.794,POINT (-55.794 -33.6604),UTE-0062,,,UTE,Convencional,P,Diaria,,,
2357,Mansavillagra,-33.6178,-55.4708,POINT (-55.4708 -33.6178),UTE-0063,,,UTE,Convencional,P,Diaria,,,
2498,Cerro Colorado,-33.8626,-55.5492,POINT (-55.5492 -33.8626),UTE-0064,,,UTE,Convencional,P,Diaria,,,
2164,Villa Carmen,-33.2418,-56.0122,POINT (-56.0122 -33.2418),UTE-0065,,,UTE,Convencional,P,Diaria,,,
2351,Pantanoso,-33.5274,-55.9558,POINT (-55.9558 -33.5274),UTE-0066,,,UTE,Convencional,P,Diaria,,,
2395,Sarandí Grande,-33.7223,-56.3274,POINT (-56.3274 -33.7223),UTE-0067,,,UTE,Convencional,P,Diaria,,,
2392,Chamangá,-33.7143,-56.6685,POINT (-56.6685 -33.7143),UTE-0068,,,UTE,Convencional,P,Diaria,,,
2204,Camino a la Aviacion,-33.4934,-56.8975,POINT (-56.8975 -33.4934),UTE-0069,,,UTE,Convencional,P,Diaria,,,
2301,Goni,-33.5192,-56.4135,POINT (-56.4135 -33.5192),UTE-0071,,,UTE,Convencional,P,Diaria,,,
2486,Pintos,-33.879,-56.7572,POINT (-56.7572 -33.879),UTE-0072,,,UTE,Convencional,P,Diaria,,,
2198,La Laguna,-33.2033,-57.5756,POINT (-57.5756 -33.2033),UTE-0073,,,UTE,Convencional,P,Diaria,,,
2340,Cuchilla del Perdido,-33.7098,-57.2649,POINT (-57.2649 -33.7098),UTE-0074,,,UTE,Convencional,P,Diaria,,,
2383,Corralito,-33.8288,-57.7881,POINT (-57.7881 -33.8288),UTE-0075,,,UTE,Convencional,P,Diaria,,,
2387,Santa Adelaida,-33.768,-57.1501,POINT (-57.1501 -33.768),UTE-0076,,,UTE,Convencional,P,Diaria,,,
2430,Santa Catalina,-33.7915,-57.4918,POINT (-57.4918 -33.7915),UTE-0077,,,UTE,Convencional,P,Diaria,,,
2480,Cardona,-33.8724,-57.37,POINT (-57.37 -33.8724),UTE-0078,,,UTE,Convencional,P,Diaria,,,
1683,Merinos,-32.3965,-56.9144,POINT (-56.9144 -32.3965),UTE-0079,,,UTE,Convencional,P,Diaria,,,
1766,Paso de la Cruz,-32.5238,-57.1603,POINT (-57.1603 -32.5238),UTE-0080,,,UTE,Convencional,P,Diaria,,,
1768,Paso de los Mellizos,-33.3317,-57.7117,POINT (-57.7117 -33.3317),UTE-0081,,,UTE,Convencional,P,Diaria,,,
1771,Sarandí de Navarro,-32.5424,-56.8617,POINT (-56.8617 -32.5424),UTE-0082,,,UTE,Convencional,P,Diaria,,,
1856,E.M. Young,-32.6863,-57.6494,POINT (-57.6494 -32.6863),UTE-0083,,,UTE,Convencional,P,Diaria,,,
1951,Sánchez Grande,-32.8336,-57.7325,POINT (-57.7325 -32.8336),UTE-0084,,,UTE,Convencional,P,Diaria,,,
2098,Villa Darwin,-33.1218,-57.6394,POINT (-57.6394 -33.1218),UTE-0085,,,UTE,Convencional,P,Diaria,,,
2099,Rincón de Cololó,-33.0631,-57.9002,POINT (-57.9002 -33.0631),UTE-0086,,,UTE,Convencional,P,Diaria,,,
2147,Ejido,-33.2786,-57.9742,POINT (-57.9742 -33.2786),UTE-0087,,,UTE,Convencional,P,Diaria,,,
2148,Arroyo Corto,-33.2399,-57.7841,POINT (-57.7841 -33.2399),UTE-0088,,,UTE,Convencional,P,Diaria,,,
2337,Egaña,-33.6026,-57.6316,POINT (-57.6316 -33.6026),UTE-0089,,,UTE,Convencional,P,Diaria,,,
2095,Cañitas,-33.161,-58.237,POINT (-58.237 -33.161),UTE-0090,,,UTE,Convencional,P,Diaria,,,
1523,Paso de los Novillos,-31.9728,-55.6714,POINT (-55.6714 -31.9728),UTE-0093,,Paso de los Novillos,UTE,Convencional - Automatica,P,Diaria y Horaria,,,
1864,Monumento,-32.7509,-56.7846,POINT (-56.7846 -32.7509),UTE-0095,,,UTE,Convencional,P,Diaria,,,
1884,Quebracho,-32.6026,-54.7214,POINT (-54.7214 -32.6026),UTE-0096,,,UTE,Convencional,P,Diaria,,,
2349,Puntas de Maciel,-33.6227,-56.3623,POINT (-56.3623 -33.6227),UTE-0098,,,UTE,Convencional,P,Diaria,,,
2384,Rodó,-33.6968,-57.5318,POINT (-57.5318 -33.6968),UTE-0099,,,UTE,Convencional,P,Diaria,,,
1224,Paso Ataques,-31.2011,-55.3622,POINT (-55.3622 -31.2011),UTE-0101,,,UTE,Convencional,P,Diaria,,,
2436,Puntas del Sauce,-33.8296,-57.0162,POINT (-57.0162 -33.8296),UTE-0104,,,UTE,Convencional,P,Diaria,,,
1600,Arbolito (Salsipuedes),-32.2049,-56.4248,POINT (-56.4248 -32.2049),UTE-0105,,,UTE,Convencional,P,Diaria,,,
1565,La Hilera,-32.078,-55.6598,POINT (-55.6598 -32.078),UTE-0106,,,UTE,Convencional,P,Diaria,,,
1539,San Diego,-31.9941,-53.9547,POINT (-53.9547 -31.9941),UTE-0107,,,UTE,Convencional,P,Diaria,,,
1751,Bañado de Medina,-32.4022,-54.3496,POINT (-54.3496 -32.4022),UTE-0108,,,UTE,Convencional,P,Diaria,,,
2266,Nico Perez,-33.4806,-55.1531,POINT (-55.1531 -33.4806),UTE-0109,,,UTE,Convencional,P,Diaria,,,
2297,E.M. Trinidad,-33.5365,-56.9157,POINT (-56.9157 -33.5365),UTE-0110,,,UTE,Convencional,P,Diaria,,,
2289,Palmitas,-33.5076,-57.7983,POINT (-57.7983 -33.5076),UTE-0111,,,UTE,Convencional,P,Diaria,,,
1521,San Joaquín,-31.9594,-55.8109,POINT (-55.8109 -31.9594),UTE-0112,,,UTE,Convencional,P,Diaria,,,
2152,El Tala,-33.2292,-57.3989,POINT (-57.3989 -33.2292),UTE-0113,,,UTE,Convencional,P,Diaria,,,
2107,Paso del Bote,-33.1706,-56.8444,POINT (-56.8444 -33.1706),UTE-0115,,,UTE,Convencional,P,Diaria,,,
1784,Paso Ramírez,-32.5372,-55.5029,POINT (-55.5029 -32.5372),UTE-0118,,,UTE,Convencional,P,Diaria,,,
1379,Moirones,-31.6026,-54.9761,POINT (-54.9761 -31.6026),UTE-0119,,,UTE,Convencional,P,Diaria,,,
1792,Tres Islas,-32.5149,-54.6884,POINT (-54.6884 -32.5149),UTE-0120,,,UTE,Convencional,P,Diaria,,,
1662,Palleros,-32.0781,-54.4849,POINT (-54.4849 -32.0781),UTE-0121,,,UTE,Convencional,P,Diaria,,,
1496,Aceguá,-31.8741,-54.161,POINT (-54.161 -31.8741),UTE-0122,,,UTE,Convencional,P,Diaria,,,
1348,Cerrillada,-31.436,-54.722,POINT (-54.722 -31.436),UTE-0123,,,UTE,Convencional,P,Diaria,,,
1417,Hospital,-31.6566,-54.6224,POINT (-54.6224 -31.6566),UTE-0124,,,UTE,Convencional,P,Diaria,,,
1774,Estancia Francia,-32.5435,-56.6248,POINT (-56.6248 -32.5435),UTE-0125,,,UTE,Convencional,P,Diaria,,,
1194,Est. Ataques,-31.0954,-55.687,POINT (-55.687 -31.0954),UTE-0126,,,UTE,Convencional,P,Diaria,,,
1220,Tranqueras,-31.1908,-55.7649,POINT (-55.7649 -31.1908),UTE-0127,,,UTE,Convencional,P,Diaria,,,
1147,E.M. Rivera,-30.8965,-55.5424,POINT (-55.5424 -30.8965),UTE-0128,,,UTE,Convencional,P,Diaria,,,
1279,Tres Puentes - Cerro Pelado,-31.4114,-55.239,POINT (-55.239 -31.4114),UTE-0129,,,UTE,Convencional,P,Diaria,,,
1308,La Calera,-31.394,-55.3944,POINT (-55.3944 -31.394),UTE-0130,,,UTE,Convencional,P,Diaria,,,
1374,Minas de Corrales,-31.5732,-55.4738,POINT (-55.4738 -31.5732),UTE-0131,,,UTE,Convencional,P,Diaria,,,
1300,Cerro Travieso,-31.4556,-56.257,POINT (-56.257 -31.4556),UTE-0132,,,UTE,Convencional,P,Diaria,,,
1301,Paso del Medio,-31.4568,-56.0722,POINT (-56.0722 -31.4568),UTE-0133,,,UTE,Convencional,P,Diaria,,,
1370,Paso de las Carretas,-31.5904,-56.0723,POINT (-56.0723 -31.5904),UTE-0134,,,UTE,Convencional,P,Diaria,,,
1403,Luján,-31.6543,-56.152,POINT (-56.152 -31.6543),UTE-0135,,,UTE,Convencional,P,Diaria,,,
1405,E.M. Tacuarembó,-31.706,-55.991,POINT (-55.991 -31.706),UTE-0136,,,UTE,Convencional,P,Diaria,,,
1440,Valle Edén,-31.824,-56.1746,POINT (-56.1746 -31.824),UTE-0137,,,UTE,Convencional,P,Diaria,,,
1444,Cuchilla del Ombú,-31.7607,-55.6978,POINT (-55.6978 -31.7607),UTE-0138,,,UTE,Convencional,P,Diaria,,,
1566,Cerro Cardozo,-32.0417,-55.5552,POINT (-55.5552 -32.0417),UTE-0139,,,UTE,Convencional,P,Diaria,,,
1312,La Puente,-31.468,-54.9615,POINT (-54.9615 -31.468),UTE-0140,,,UTE,Convencional,P,Diaria,,,
1528,Puntas Cinco Sauces,-31.955,-55.0391,POINT (-55.0391 -31.955),UTE-0142,,,UTE,Convencional,P,Diaria,,,
1569,Cinco Sauces,-32.0836,-55.1944,POINT (-55.1944 -32.0836),UTE-0143,,,UTE,Convencional,P,Diaria,,,
1454,Vichadero,-31.7789,-54.6915,POINT (-54.6915 -31.7789),UTE-0146,,,UTE,Convencional,P,Diaria,,,
1495,Paso de las Yeguas,-31.9133,-54.3092,POINT (-54.3092 -31.9133),UTE-0147,,,UTE,Convencional,P,Diaria,,,
1537,Noblia,-31.9559,-54.1237,POINT (-54.1237 -31.9559),UTE-0148,,,UTE,Convencional,P,Diaria,,,
1580,Mangrullo,-32.0986,-54.0483,POINT (-54.0483 -32.0986),UTE-0149,,,UTE,Convencional,P,Diaria,,,
1621,Buena Vista,-32.1287,-54.1592,POINT (-54.1592 -32.1287),UTE-0151,,,UTE,Convencional,P,Diaria,,,
1626,Centurión,-32.1456,-53.788,POINT (-53.788 -32.1456),UTE-0152,,,UTE,Convencional,P,Diaria,,,
1665,Tres Boliches,-32.2819,-54.1629,POINT (-54.1629 -32.2819),UTE-0153,,,UTE,Convencional,P,Diaria,,,
1572,Caraguatá Norte,-32.1215,-54.9005,POINT (-54.9005 -32.1215),UTE-0154,,,UTE,Convencional,P,Diaria,,,
1709,E.M. Melo,-32.3673,-54.1923,POINT (-54.1923 -32.3673),UTE-0155,,,UTE,Convencional,P,Diaria,,,
1657,Caraguatá Sur,-32.2452,-54.9926,POINT (-54.9926 -32.2452),UTE-0156,,,UTE,Convencional,P,Diaria,,,
1793,Fraile Muerto,-32.5121,-54.5236,POINT (-54.5236 -32.5121),UTE-0158,,,UTE,Convencional,P,Diaria,,,
1838,Cerro de la Cuentas,-32.6185,-54.5932,POINT (-54.5932 -32.6185),UTE-0159,,,UTE,Convencional,P,Diaria,,,
1840,Paso de los Carros,-32.5651,-54.3734,POINT (-54.3734 -32.5651),UTE-0160,,,UTE,Convencional,P,Diaria,,,
1841,Arbolito (Pereira),-32.6124,-54.2138,POINT (-54.2138 -32.6124),UTE-0161,,,UTE,Convencional,P,Diaria,,,
1882,Laguna del Junco,-32.7283,-54.9023,POINT (-54.9023 -32.7283),UTE-0162,,,UTE,Convencional,P,Diaria,,,
1880,Cuchilla del Carmen,-32.7199,-55.0325,POINT (-55.0325 -32.7199),UTE-0163,,,UTE,Convencional,P,Diaria,,,
1973,Capilla Farruco,-32.8388,-55.5186,POINT (-55.5186 -32.8388),UTE-0164,,,UTE,Convencional,P,Diaria,,,
2073,Cerro Chato,-33.0996,-55.1422,POINT (-55.1422 -33.0996),UTE-0165,,,UTE,Convencional,P,Diaria,,,
1603,Curtina,-32.1457,-56.1131,POINT (-56.1131 -32.1457),UTE-0166,,,UTE,Convencional,P,Diaria,,,
1605,Paso de los Cuadrados,-32.1678,-55.9471,POINT (-55.9471 -32.1678),UTE-0167,,,UTE,Convencional,P,Diaria,,,
1692,Paso Hondo,-32.2866,-55.8403,POINT (-55.8403 -32.2866),UTE-0168,,,UTE,Convencional,P,Diaria,,,
1650,Clara,-32.2234,-55.7313,POINT (-55.7313 -32.2234),UTE-0169,,,UTE,Convencional,P,Diaria,,,
1734,Achar,-32.404,-56.1807,POINT (-56.1807 -32.404),UTE-0170,,,UTE,Convencional,P,Diaria,,,
1869,Cardozo,-32.6579,-56.2877,POINT (-56.2877 -32.6579),UTE-0172,,,UTE,Convencional,P,Diaria,,,
1875,La Paloma,-32.7301,-55.5745,POINT (-55.5745 -32.7301),UTE-0173,,,UTE,Convencional,P,Diaria,,,
1917,Estancia Iberia,-32.8729,-56.2839,POINT (-56.2839 -32.8729),UTE-0174,,,UTE,Convencional,P,Diaria,,,
1971,Blanquillo,-32.8865,-55.6201,POINT (-55.6201 -32.8865),UTE-0175,,,UTE,Convencional,P,Diaria,,,
2108,Feliciano,-33.1864,-56.8087,POINT (-56.8087 -33.1864),UTE-0177,,,UTE,Convencional,P,Diaria,,,
2233,Concepcion del Uruguay,-32.477173,-58.221219,POINT (-58.221219 -32.477173),,,,CARU,Telemetrica,H,Horaria,,,
2231,Nuevo Berlín,-32.979836,-58.061997,POINT (-58.061997 -32.979836),,,,CARU,Telemetrica,H,Horaria,,,
2235,Fray Bentos,-33.112132,-58.314443,POINT (-58.314443 -33.112132),,,,CARU,Telemetrica,H,Horaria,,,
2232,Paysandú,-32.313646,-58.102575,POINT (-58.102575 -32.313646),,,,CARU,Telemetrica,H,30 min,,,
1699,Nueva Palmira,-33.878478,-58.422029,POINT (-58.422029 -33.878478),,,,CARU,Telemetrica,H,30 min,,,
PNA_65,San Javier,-27.883333,-55.133333,POINT (-55.133333 -27.883333),,,,PNA,Telemetrica,H,Diaria,,,
PNA_68,Santo Tomé,-28.55,-56.03333,POINT (-56.03333 -28.55),,,,PNA,Telemetrica,H,Diaria,,,
PNA_72,Paso de los Libres,-29.71666,-57.08333,POINT (-57.08333 -29.71666),,,,PNA,Telemetrica,H,Diaria,,,
SJ01,SJ01,-33.905497,-56.866533,POINT (-56.866533 -33.905497),,,,DINACEA,Convencional,C,NONEQ,,,
AV05,AV05,-34.415567,-56.416061,POINT (-56.416061 -34.415567),,,,DINACEA,Convencional,C,NONEQ,,,
CG02,CG02,-34.458717,-56.264986,POINT (-56.264986 -34.458717),,,,DINACEA,Convencional,C,NONEQ,,,
SJ03,SJ03,-34.53686111,-56.57747222,POINT (-56.57747222 -34.53686111),,,,DINACEA,Convencional,C,NONEQ,,,
SJ02,SJ02,-34.166814,-56.759683,POINT (-56.759683 -34.166814),,,,DINACEA,Convencional,C,NONEQ,,,
CA04,CA04,-34.48480556,-56.341,POINT (-56.341 -34.48480556),,,,DINACEA,Convencional,C,NONEQ,,,
PS02,PS02,-34.259103,-56.301722,POINT (-56.301722 -34.259103),,,,DINACEA,Convencional,C,NONEQ,,,
SL05,SL05,-34.44941667,-56.40222222,POINT (-56.40222222 -34.44941667),,,,DINACEA,Convencional,C,NONEQ,,,
SL02,SL02,-34.146556,-55.573869,POINT (-55.573869 -34.146556),,,,DINACEA,Convencional,C,NONEQ,,,
SJ04,SJ04,-34.5884,-56.502328,POINT (-56.502328 -34.5884),,,,DINACEA,Convencional,C,NONEQ,,,
SL06,SL06,-34.589731,-56.493911,POINT (-56.493911 -34.589731),,,,DINACEA,Convencional,C,NONEQ,,,
SL01,SL01,-34.26686111,-55.45497222,POINT (-55.45497222 -34.26686111),,,,DINACEA,Convencional,C,NONEQ,,,
CA01,CA01,-34.538375,-56.261767,POINT (-56.261767 -34.538375),,,,DINACEA,Convencional,C,NONEQ,,,
CG01,CG01,-34.453828,-56.162772,POINT (-56.162772 -34.453828),,,,DINACEA,Convencional,C,NONEQ,,,
CA02,CA02,-34.49891667,-56.28194444,POINT (-56.28194444 -34.49891667),,,,DINACEA,Convencional,C,NONEQ,,,
CG03,CG03,-34.448867,-56.241606,POINT (-56.241606 -34.448867),,,,DINACEA,Convencional,C,NONEQ,,,
SL04,SL04,-34.36433333,-56.24905556,POINT (-56.24905556 -34.36433333),,,,DINACEA,Convencional,C,NONEQ,,,
SL03,SL03,-34.28127778,-55.95541667,POINT (-55.95541667 -34.28127778),,,,DINACEA,Convencional,C,NONEQ,,,
PS04,PS04,-34.230542,-56.303856,POINT (-56.303856 -34.230542),,,,DINACEA,Convencional,C,NONEQ,,,
PS03,PS03,-34.200756,-56.281608,POINT (-56.281608 -34.200756),,,,DINACEA,Convencional,C,NONEQ,,,
PS01,PS01,-34.154731,-56.235798,POINT (-56.235798 -34.154731),,,,DINACEA,Convencional,C,NONEQ,,,
SLC02,SLC02,-34.09147222,-56.20355556,POINT (-56.20355556 -34.09147222),,,,DINACEA,Convencional,C,NONEQ,,,
SLC01,SLC01,-33.960889,-55.88425,POINT (-55.88425 -33.960889),,,,DINACEA,Convencional,C,NONEQ,,,
SJ05,SJ05,-34.452356,-56.580161,POINT (-56.580161 -34.452356),,,,DINACEA,Convencional,C,NONEQ,,,
CO01,CO01,-34.72638889,-56.35388889,POINT (-56.35388889 -34.72638889),,,,DINACEA,Convencional,C,NONEQ,,,
CA05,CA05,-34.213866,-55.93456,POINT (-55.93456 -34.213866),,,,DINACEA,Convencional,C,NONEQ,,,
CO05,CO05,-34.411443,-56.18463,POINT (-56.18463 -34.411443),,,,DINACEA,Convencional,C,NONEQ,,,
LP05,LP05,-34.43777,-56.172711,POINT (-56.172711 -34.43777),,,,DINACEA,Convencional,C,NONEQ,,,
wflow_01,APORTE REPRESA CANELON GRANDE,34.44468453,-56.20888435,POINT (-56.20888435 34.44468453),,,,,,,,SantaLucia,1.0,
wflow_02,APORTE REPRESA PASO SEVERINO,-34.1593373,-56.23408838,POINT (-56.23408838 -34.1593373),,,,,,,,SantaLucia,1.0,
wflow_03,APORTE A LA TOMA DE AGUAS CORRIENTES,-34.51219382,-56.39529187,POINT (-56.39529187 -34.51219382),,,,,,,,SantaLucia,1.0,
wflow_04,CAUDAL PARA SAT EN CANELONES,-34.52140545,-56.26554012,POINT (-56.26554012 -34.52140545),,,,,,,,SantaLucia,1.0,
wflow_05,APORTE POSIBLE REPRESA CASUPA,-34.04304049,-55.46527994,POINT (-55.46527994 -34.04304049),,,,,,,,SantaLucia,1.0,
wflow_06,POSIBLE REPRESA Ao EL SOLDADO,-34.12935686,-55.28104738,POINT (-55.28104738 -34.12935686),,,,,,,,SantaLucia,1.0,
